<?xml version="1.0"?>
<gpx creator="GPS Visualizer http://www.gpsvisualizer.com/" version="1.1" xmlns="http://www.topografix.com/GPX/1/1" xmlns:xsi="http://www.w3.org/2001/XMLSchema-instance" xsi:schemaLocation="http://www.topografix.com/GPX/1/1 http://www.topografix.com/GPX/1/1/gpx.xsd">
    <wpt lat="39.117777778" lon="-106.445277778">
        <ele>14422.0</ele>
        <name>Mount Elbert</name>
        <desc>CO</desc>
    </wpt>
    <wpt lat="38.924444444" lon="-106.320555556">
        <ele>14406.0</ele>
        <name>Mount Harvard</name>
        <desc>CO</desc>
    </wpt>
    <wpt lat="39.187222222" lon="-106.475277778">
        <ele>14386.0</ele>
        <name>Mount Massive</name>
        <desc>CO</desc>
    </wpt>
    <wpt lat="39.029444444" lon="-106.472777778">
        <ele>14337.0</ele>
        <name>La Plata Peak</name>
        <desc>CO</desc>
    </wpt>
    <wpt lat="38.071666667" lon="-107.461944444">
        <ele>14301.0</ele>
        <name>Uncompahgre Peak</name>
        <desc>CO</desc>
    </wpt>
    <wpt lat="37.577222222" lon="-105.485833333">
        <ele>14285.0</ele>
        <name>Blanca Peak</name>
        <desc>CO</desc>
    </wpt>
    <wpt lat="39.633888889" lon="-105.8175">
        <ele>14268.0</ele>
        <name>Grays Peak</name>
        <desc>CO</desc>
    </wpt>
    <wpt lat="39.351388889" lon="-106.111388889">
        <ele>14265.0</ele>
        <name>Mount Lincoln</name>
        <desc>CO</desc>
    </wpt>
    <wpt lat="39.397222222" lon="-106.106388889">
        <ele>14265.0</ele>
        <name>Quandary Peak</name>
        <desc>CO</desc>
    </wpt>
    <wpt lat="40.254722222" lon="-105.616111111">
        <ele>14258.0</ele>
        <name>Longs Peak</name>
        <desc>CO</desc>
    </wpt>
    <wpt lat="39.009722222" lon="-106.861388889">
        <ele>14252.0</ele>
        <name>Castle Peak</name>
        <desc>CO</desc>
    </wpt>
    <wpt lat="37.966666667" lon="-105.585277778">
        <ele>14252.0</ele>
        <name>Crestone Peak</name>
        <desc>CO</desc>
    </wpt>
    <wpt lat="39.588333333" lon="-105.643611111">
        <ele>14249.0</ele>
        <name>Mount Evans</name>
        <desc>CO</desc>
    </wpt>
    <wpt lat="39.642777778" lon="-105.821388889">
        <ele>14235.0</ele>
        <name>Torreys Peak</name>
        <desc>CO</desc>
    </wpt>
    <wpt lat="39.346944444" lon="-106.118611111">
        <ele>14222.0</ele>
        <name>Mount Cameron</name>
        <desc>CO</desc>
    </wpt>
    <wpt lat="38.844166667" lon="-106.313888889">
        <ele>14199.0</ele>
        <name>Mount Yale</name>
        <desc>CO</desc>
    </wpt>
    <wpt lat="37.839166667" lon="-107.991388889">
        <ele>14186.0</ele>
        <name>Mount Wilson</name>
        <desc>CO</desc>
    </wpt>
    <wpt lat="39.335277778" lon="-106.1075">
        <ele>14183.0</ele>
        <name>Mount Bross</name>
        <desc>CO</desc>
    </wpt>
    <wpt lat="37.979722222" lon="-105.6025">
        <ele>14173.0</ele>
        <name>Kit Carson Mountain</name>
        <desc>CO</desc>
    </wpt>
    <wpt lat="37.964722222" lon="-105.576666667">
        <ele>14166.0</ele>
        <name>Crestone Needle</name>
        <desc>CO</desc>
    </wpt>
    <wpt lat="38.618888889" lon="-106.239444444">
        <ele>14157.0</ele>
        <name>Mount Shavano</name>
        <desc>CO</desc>
    </wpt>
    <wpt lat="38.960555556" lon="-106.361111111">
        <ele>14144.0</ele>
        <name>Mount Belford</name>
        <desc>CO</desc>
    </wpt>
    <wpt lat="38.749444444" lon="-106.2425">
        <ele>14144.0</ele>
        <name>Mount Princeton</name>
        <desc>CO</desc>
    </wpt>
    <wpt lat="37.839444444" lon="-108.005277778">
        <ele>14140.0</ele>
        <name>El Diente Peak</name>
        <desc>CO</desc>
    </wpt>
    <wpt lat="39.339722222" lon="-106.14">
        <ele>14140.0</ele>
        <name>Mount Democrat</name>
        <desc>CO</desc>
    </wpt>
    <wpt lat="38.964722222" lon="-106.338888889">
        <ele>14130.0</ele>
        <name>Mount Oxford</name>
        <desc>CO</desc>
    </wpt>
    <wpt lat="39.150277778" lon="-107.083055556">
        <ele>14121.0</ele>
        <name>Capitol Peak</name>
        <desc>CO</desc>
    </wpt>
    <wpt lat="38.673888889" lon="-106.246666667">
        <ele>14121.0</ele>
        <name>Mount Antero</name>
        <desc>CO</desc>
    </wpt>
    <wpt lat="38.840555556" lon="-105.044444444">
        <ele>14117.0</ele>
        <name>Pikes Peak</name>
        <desc>CO</desc>
    </wpt>
    <wpt lat="37.621666667" lon="-107.622777778">
        <ele>14091.0</ele>
        <name>Mount Eolus</name>
        <desc>CO</desc>
    </wpt>
    <wpt lat="37.621111111" lon="-107.591944444">
        <ele>14091.0</ele>
        <name>Windom Peak</name>
        <desc>CO</desc>
    </wpt>
    <wpt lat="39.118888889" lon="-107.066388889">
        <ele>14088.0</ele>
        <name>Snowmass Mountain</name>
        <desc>CO</desc>
    </wpt>
    <wpt lat="39.070833333" lon="-106.989166667">
        <ele>14081.0</ele>
        <name>Maroon Peak</name>
        <desc>CO</desc>
    </wpt>
    <wpt lat="37.980277778" lon="-105.606666667">
        <ele>14065.0</ele>
        <name>Challenger Point</name>
        <desc>CO</desc>
    </wpt>
    <wpt lat="37.5825" lon="-105.4925">
        <ele>14065.0</ele>
        <name>Ellingwood Point</name>
        <desc>CO</desc>
    </wpt>
    <wpt lat="37.625277778" lon="-107.621111111">
        <ele>14065.0</ele>
        <name>North Eolus</name>
        <desc>CO</desc>
    </wpt>
    <wpt lat="38.903888889" lon="-106.2975">
        <ele>14058.0</ele>
        <name>Mount Columbia</name>
        <desc>CO</desc>
    </wpt>
    <wpt lat="37.976111111" lon="-105.555277778">
        <ele>14055.0</ele>
        <name>Humboldt Peak</name>
        <desc>CO</desc>
    </wpt>
    <wpt lat="37.913055556" lon="-107.504444444">
        <ele>14052.0</ele>
        <name>Handies Peak</name>
        <desc>CO</desc>
    </wpt>
    <wpt lat="39.582777778" lon="-105.668611111">
        <ele>14048.0</ele>
        <name>Mount Bierstadt</name>
        <desc>CO</desc>
    </wpt>
    <wpt lat="37.122222222" lon="-105.185555556">
        <ele>14045.0</ele>
        <name>Culebra Peak</name>
        <desc>CO</desc>
    </wpt>
    <wpt lat="37.627222222" lon="-107.595833333">
        <ele>14045.0</ele>
        <name>Sunlight Peak</name>
        <desc>CO</desc>
    </wpt>
    <wpt lat="37.566666667" lon="-105.497222222">
        <ele>14035.0</ele>
        <name>Little Bear Peak</name>
        <desc>CO</desc>
    </wpt>
    <wpt lat="37.940833333" lon="-107.421944444">
        <ele>14029.0</ele>
        <name>Redcloud Peak</name>
        <desc>CO</desc>
    </wpt>
    <wpt lat="37.860277778" lon="-107.984722222">
        <ele>14022.0</ele>
        <name>Wilson Peak</name>
        <desc>CO</desc>
    </wpt>
    <wpt lat="39.014444444" lon="-106.863888889">
        <ele>14012.0</ele>
        <name>Conundrum Peak</name>
        <desc>CO</desc>
    </wpt>
    <wpt lat="37.922777778" lon="-107.425555556">
        <ele>14012.0</ele>
        <name>Sunshine Peak</name>
        <desc>CO</desc>
    </wpt>
    <wpt lat="39.225" lon="-106.169722222">
        <ele>14009.0</ele>
        <name>Mount Sherman</name>
        <desc>CO</desc>
    </wpt>
    <wpt lat="38.625277778" lon="-106.250833333">
        <ele>14009.0</ele>
        <name>Tabeguache Peak</name>
        <desc>CO</desc>
    </wpt>
    <wpt lat="39.466666667" lon="-106.481666667">
        <ele>14002.0</ele>
        <name>Mount of the Holy Cross</name>
        <desc>CO</desc>
    </wpt>
    <wpt lat="37.986944444" lon="-106.931388889">
        <ele>14002.0</ele>
        <name>San Luis Peak</name>
        <desc>CO</desc>
    </wpt>
    <wpt lat="38.947222222" lon="-106.378333333">
        <ele>13993.0</ele>
        <name>Missouri Mountain</name>
        <desc>CO</desc>
    </wpt>
    <wpt lat="38.003333333" lon="-107.792222222">
        <ele>13993.0</ele>
        <name>Mount Sneffels</name>
        <desc>CO</desc>
    </wpt>
    <wpt lat="39.076111111" lon="-106.987222222">
        <ele>13976.0</ele>
        <name>North Maroon Peak</name>
        <desc>CO</desc>
    </wpt>
    <wpt lat="39.0425" lon="-106.5975">
        <ele>13970.0</ele>
        <name>Grizzly Peak</name>
        <desc>CO</desc>
    </wpt>
    <wpt lat="38.023333333" lon="-106.923333333">
        <ele>13953.0</ele>
        <name>Stewart Peak</name>
        <desc>CO</desc>
    </wpt>
    <wpt lat="38.945277778" lon="-106.438055556">
        <ele>13950.0</ele>
        <name>Huron Peak</name>
        <desc>CO</desc>
    </wpt>
    <wpt lat="38.0075" lon="-105.604722222">
        <ele>13940.0</ele>
        <name>Mount Adams</name>
        <desc>CO</desc>
    </wpt>
    <wpt lat="39.021111111" lon="-106.419722222">
        <ele>13940.0</ele>
        <name>Mount Hope</name>
        <desc>CO</desc>
    </wpt>
    <wpt lat="39.034444444" lon="-106.858888889">
        <ele>13934.0</ele>
        <name>Cathedral Peak</name>
        <desc>CO</desc>
    </wpt>
    <wpt lat="37.6325" lon="-107.646111111">
        <ele>13934.0</ele>
        <name>Pigeon Peak</name>
        <desc>CO</desc>
    </wpt>
    <wpt lat="38.060555556" lon="-107.510833333">
        <ele>13934.0</ele>
        <name>Wetterhorn Peak</name>
        <desc>CO</desc>
    </wpt>
    <wpt lat="39.071388889" lon="-106.950277778">
        <ele>13930.0</ele>
        <name>Pyramid Peak</name>
        <desc>CO</desc>
    </wpt>
    <wpt lat="39.234722222" lon="-106.168333333">
        <ele>13920.0</ele>
        <name>Gemini Peak</name>
        <desc>CO</desc>
    </wpt>
    <wpt lat="37.978888889" lon="-105.598055556">
        <ele>13917.0</ele>
        <name>Columbia Point</name>
        <desc>CO</desc>
    </wpt>
    <wpt lat="39.403333333" lon="-106.128888889">
        <ele>13907.0</ele>
        <name>Fletcher Mountain</name>
        <desc>CO</desc>
    </wpt>
    <wpt lat="39.114166667" lon="-106.493888889">
        <ele>13901.0</ele>
        <name>Casco Peak</name>
        <desc>CO</desc>
    </wpt>
    <wpt lat="37.112222222" lon="-105.181111111">
        <ele>13901.0</ele>
        <name>Red Mountain</name>
        <desc>CO</desc>
    </wpt>
    <wpt lat="39.185833333" lon="-106.185277778">
        <ele>13894.0</ele>
        <name>Horseshoe Mountain</name>
        <desc>CO</desc>
    </wpt>
    <wpt lat="39.128611111" lon="-106.4825">
        <ele>13891.0</ele>
        <name>French Mountain</name>
        <desc>CO</desc>
    </wpt>
    <wpt lat="38.4225" lon="-106.225277778">
        <ele>13888.0</ele>
        <name>Mount Ouray</name>
        <desc>CO</desc>
    </wpt>
    <wpt lat="38.928888889" lon="-106.381111111">
        <ele>13884.0</ele>
        <name>Emerald Peak</name>
        <desc>CO</desc>
    </wpt>
    <wpt lat="37.845277778" lon="-107.983888889">
        <ele>13878.0</ele>
        <name>Gladstone Peak</name>
        <desc>CO</desc>
    </wpt>
    <wpt lat="40.248611111" lon="-105.605">
        <ele>13868.0</ele>
        <name>Mount Meeker</name>
        <desc>CO</desc>
    </wpt>
    <wpt lat="39.423055556" lon="-106.123333333">
        <ele>13868.0</ele>
        <name>Pacific Peak</name>
        <desc>CO</desc>
    </wpt>
    <wpt lat="38.655555556" lon="-106.283333333">
        <ele>13855.0</ele>
        <name>Cronin Peak</name>
        <desc>CO</desc>
    </wpt>
    <wpt lat="39.358611111" lon="-106.148333333">
        <ele>13855.0</ele>
        <name>Traver Peak</name>
        <desc>CO</desc>
    </wpt>
    <wpt lat="39.6" lon="-105.656944444">
        <ele>13852.0</ele>
        <name>Mount Spalding</name>
        <desc>CO</desc>
    </wpt>
    <wpt lat="37.614166667" lon="-105.498611111">
        <ele>13848.0</ele>
        <name>California Peak</name>
        <desc>CO</desc>
    </wpt>
    <wpt lat="38.914444444" lon="-106.437222222">
        <ele>13845.0</ele>
        <name>Ice Mountain</name>
        <desc>CO</desc>
    </wpt>
    <wpt lat="39.636388889" lon="-105.793888889">
        <ele>13838.0</ele>
        <name>Mount Edwards</name>
        <desc>CO</desc>
    </wpt>
    <wpt lat="39.239722222" lon="-106.183333333">
        <ele>13829.0</ele>
        <name>Dyer Mountain</name>
        <desc>CO</desc>
    </wpt>
    <wpt lat="37.896388889" lon="-107.526388889">
        <ele>13829.0</ele>
        <name>Jones Mountain</name>
        <desc>CO</desc>
    </wpt>
    <wpt lat="39.413611111" lon="-106.126111111">
        <ele>13822.0</ele>
        <name>Atlantic Peak</name>
        <desc>CO</desc>
    </wpt>
    <wpt lat="39.434444444" lon="-106.114444444">
        <ele>13822.0</ele>
        <name>Crystal Peak</name>
        <desc>CO</desc>
    </wpt>
    <wpt lat="37.645555556" lon="-107.583888889">
        <ele>13822.0</ele>
        <name>Jagged Mountain</name>
        <desc>CO</desc>
    </wpt>
    <wpt lat="39.178888889" lon="-106.506111111">
        <ele>13822.0</ele>
        <name>Mount Oklahoma</name>
        <desc>CO</desc>
    </wpt>
    <wpt lat="39.339166667" lon="-106.005277778">
        <ele>13822.0</ele>
        <name>Mount Silverheels</name>
        <desc>CO</desc>
    </wpt>
    <wpt lat="37.6125" lon="-107.591944444">
        <ele>13819.0</ele>
        <name>Jupiter Mountain</name>
        <desc>CO</desc>
    </wpt>
    <wpt lat="37.799166667" lon="-107.828333333">
        <ele>13819.0</ele>
        <name>Vermilion Peak</name>
        <desc>CO</desc>
    </wpt>
    <wpt lat="39.368333333" lon="-106.149166667">
        <ele>13815.0</ele>
        <name>Clinton Peak</name>
        <desc>CO</desc>
    </wpt>
    <wpt lat="37.6275" lon="-107.639722222">
        <ele>13815.0</ele>
        <name>Turret Peak</name>
        <desc>CO</desc>
    </wpt>
    <wpt lat="37.685" lon="-107.581111111">
        <ele>13812.0</ele>
        <name>Trinity Peaks</name>
        <desc>CO</desc>
    </wpt>
    <wpt lat="37.864166667" lon="-107.466111111">
        <ele>13809.0</ele>
        <name>Half Peak</name>
        <desc>CO</desc>
    </wpt>
    <wpt lat="38.939166667" lon="-106.383333333">
        <ele>13809.0</ele>
        <name>Iowa Peak</name>
        <desc>CO</desc>
    </wpt>
    <wpt lat="39.318611111" lon="-106.147222222">
        <ele>13796.0</ele>
        <name>Mount Buckskin</name>
        <desc>CO</desc>
    </wpt>
    <wpt lat="37.899444444" lon="-107.5125">
        <ele>13792.0</ele>
        <name>American Peak</name>
        <desc>CO</desc>
    </wpt>
    <wpt lat="37.692777778" lon="-107.61">
        <ele>13792.0</ele>
        <name>Arrow Peak</name>
        <desc>CO</desc>
    </wpt>
    <wpt lat="37.679722222" lon="-107.3925">
        <ele>13792.0</ele>
        <name>Rio Grande Pyramid</name>
        <desc>CO</desc>
    </wpt>
    <wpt lat="37.889444444" lon="-107.533333333">
        <ele>13786.0</ele>
        <name>Niagara Peak</name>
        <desc>CO</desc>
    </wpt>
    <wpt lat="39.3325" lon="-106.178055556">
        <ele>13783.0</ele>
        <name>Mount Arkansas</name>
        <desc>CO</desc>
    </wpt>
    <wpt lat="39.593333333" lon="-105.763055556">
        <ele>13783.0</ele>
        <name>Square Top Mountain</name>
        <desc>CO</desc>
    </wpt>
    <wpt lat="38.919444444" lon="-106.434444444">
        <ele>13783.0</ele>
        <name>The Three Apostles</name>
        <desc>CO</desc>
    </wpt>
    <wpt lat="37.689444444" lon="-107.6025">
        <ele>13779.0</ele>
        <name>Vestal Peak</name>
        <desc>CO</desc>
    </wpt>
    <wpt lat="37.989722222" lon="-107.749444444">
        <ele>13763.0</ele>
        <name>Potosi Peak</name>
        <desc>CO</desc>
    </wpt>
    <wpt lat="39.030555556" lon="-106.594722222">
        <ele>13756.0</ele>
        <name>Garfield Peak</name>
        <desc>CO</desc>
    </wpt>
    <wpt lat="37.643333333" lon="-107.629166667">
        <ele>13750.0</ele>
        <name>Animas Mountain</name>
        <desc>CO</desc>
    </wpt>
    <wpt lat="39.209166667" lon="-106.184722222">
        <ele>13743.0</ele>
        <name>Mount Sheridan</name>
        <desc>CO</desc>
    </wpt>
    <wpt lat="37.804722222" lon="-107.824722222">
        <ele>13740.0</ele>
        <name>Golden Horn</name>
        <desc>CO</desc>
    </wpt>
    <wpt lat="39.3625" lon="-106.152777778">
        <ele>13740.0</ele>
        <name>McNamee Peak</name>
        <desc>CO</desc>
    </wpt>
    <wpt lat="37.676666667" lon="-107.559444444">
        <ele>13737.0</ele>
        <name>Storm King Peak</name>
        <desc>CO</desc>
    </wpt>
    <wpt lat="39.612222222" lon="-105.777222222">
        <ele>13733.0</ele>
        <name>Argentine Peak</name>
        <desc>CO</desc>
    </wpt>
    <wpt lat="37.756111111" lon="-107.861944444">
        <ele>13733.0</ele>
        <name>Grizzly Peak</name>
        <desc>CO</desc>
    </wpt>
    <wpt lat="37.779166667" lon="-107.864166667">
        <ele>13733.0</ele>
        <name>San Miguel Peak</name>
        <desc>CO</desc>
    </wpt>
    <wpt lat="37.094166667" lon="-105.191111111">
        <ele>13733.0</ele>
        <name>Vermejo Peak</name>
        <desc>CO</desc>
    </wpt>
    <wpt lat="37.968055556" lon="-105.585555556">
        <ele>13730.0</ele>
        <name>Crestone Peaks</name>
        <desc>CO</desc>
    </wpt>
    <wpt lat="37.990833333" lon="-106.895">
        <ele>13730.0</ele>
        <name>Organ Mountain</name>
        <desc>CO</desc>
    </wpt>
    <wpt lat="39.036666667" lon="-106.439722222">
        <ele>13730.0</ele>
        <name>Rinker Peak</name>
        <desc>CO</desc>
    </wpt>
    <wpt lat="39.099444444" lon="-106.462222222">
        <ele>13724.0</ele>
        <name>Bull Hill</name>
        <desc>CO</desc>
    </wpt>
    <wpt lat="39.150555556" lon="-106.174444444">
        <ele>13720.0</ele>
        <name>Ptarmigan Peak</name>
        <desc>CO</desc>
    </wpt>
    <wpt lat="37.824444444" lon="-107.806944444">
        <ele>13714.0</ele>
        <name>Ulysses S Grant Peak</name>
        <desc>CO</desc>
    </wpt>
    <wpt lat="37.917777778" lon="-106.841111111">
        <ele>13707.0</ele>
        <name>La Garita Peak</name>
        <desc>CO</desc>
    </wpt>
    <wpt lat="38.005277778" lon="-106.921666667">
        <ele>13704.0</ele>
        <name>Baldy Alto</name>
        <desc>CO</desc>
    </wpt>
    <wpt lat="37.795833333" lon="-107.821111111">
        <ele>13704.0</ele>
        <name>Fuller Peak</name>
        <desc>CO</desc>
    </wpt>
    <wpt lat="38.106944444" lon="-107.449444444">
        <ele>13701.0</ele>
        <name>Silver Mountain</name>
        <desc>CO</desc>
    </wpt>
    <wpt lat="38.003888889" lon="-107.771666667">
        <ele>13697.0</ele>
        <name>Cirque Mountain</name>
        <desc>CO</desc>
    </wpt>
    <wpt lat="37.995555556" lon="-105.560555556">
        <ele>13697.0</ele>
        <name>Colony Baldy</name>
        <desc>CO</desc>
    </wpt>
    <wpt lat="39.156944444" lon="-106.521388889">
        <ele>13694.0</ele>
        <name>Deer Mountain</name>
        <desc>CO</desc>
    </wpt>
    <wpt lat="37.795833333" lon="-107.431111111">
        <ele>13694.0</ele>
        <name>Pole Creek Mountain</name>
        <desc>CO</desc>
    </wpt>
    <wpt lat="39.300277778" lon="-106.183055556">
        <ele>13691.0</ele>
        <name>Mosquito Peak</name>
        <desc>CO</desc>
    </wpt>
    <wpt lat="39.306388889" lon="-106.183611111">
        <ele>13691.0</ele>
        <name>Treasurevault Mountain</name>
        <desc>CO</desc>
    </wpt>
    <wpt lat="37.660277778" lon="-107.585">
        <ele>13687.0</ele>
        <name>Needle Mountains Peak Six</name>
        <desc>CO</desc>
    </wpt>
    <wpt lat="38.000833333" lon="-107.761666667">
        <ele>13687.0</ele>
        <name>Teakettle Mountain</name>
        <desc>CO</desc>
    </wpt>
    <wpt lat="38.645833333" lon="-106.311111111">
        <ele>13684.0</ele>
        <name>Grizzly Mountain</name>
        <desc>CO</desc>
    </wpt>
    <wpt lat="37.766111111" lon="-107.826111111">
        <ele>13684.0</ele>
        <name>Rolling Mountain</name>
        <desc>CO</desc>
    </wpt>
    <wpt lat="37.811666667" lon="-107.828888889">
        <ele>13681.0</ele>
        <name>Pilot Knob</name>
        <desc>CO</desc>
    </wpt>
    <wpt lat="37.988055556" lon="-107.823611111">
        <ele>13674.0</ele>
        <name>Dallas Peak</name>
        <desc>CO</desc>
    </wpt>
    <wpt lat="38.102777778" lon="-105.661666667">
        <ele>13674.0</ele>
        <name>Rito Alto Peak</name>
        <desc>CO</desc>
    </wpt>
    <wpt lat="37.0725" lon="-105.210555556">
        <ele>13671.0</ele>
        <name>Purgatoire Peak</name>
        <desc>CO</desc>
    </wpt>
    <wpt lat="37.8575" lon="-107.401944444">
        <ele>13661.0</ele>
        <name>Carson Peak</name>
        <desc>CO</desc>
    </wpt>
    <wpt lat="39.485277778" lon="-106.536666667">
        <ele>13661.0</ele>
        <name>Mount Jackson</name>
        <desc>CO</desc>
    </wpt>
    <wpt lat="37.986666667" lon="-107.793055556">
        <ele>13655.0</ele>
        <name>Gilpin Peak</name>
        <desc>CO</desc>
    </wpt>
    <wpt lat="37.584722222" lon="-105.440833333">
        <ele>13651.0</ele>
        <name>Mount Lindsey</name>
        <desc>CO</desc>
    </wpt>
    <wpt lat="38.585833333" lon="-106.32">
        <ele>13648.0</ele>
        <name>Mount Aetna</name>
        <desc>CO</desc>
    </wpt>
    <wpt lat="39.720277778" lon="-105.803888889">
        <ele>13645.0</ele>
        <name>Bard Peak</name>
        <desc>CO</desc>
    </wpt>
    <wpt lat="37.626111111" lon="-107.614166667">
        <ele>13645.0</ele>
        <name>Glacier Point</name>
        <desc>CO</desc>
    </wpt>
    <wpt lat="37.607222222" lon="-107.493611111">
        <ele>13645.0</ele>
        <name>Mount Oso</name>
        <desc>CO</desc>
    </wpt>
    <wpt lat="37.667777778" lon="-107.573888889">
        <ele>13645.0</ele>
        <name>Needle Mountains Peak Seven</name>
        <desc>CO</desc>
    </wpt>
    <wpt lat="37.640555556" lon="-107.624722222">
        <ele>13645.0</ele>
        <name>Needle Mountains Peak Thirteen</name>
        <desc>CO</desc>
    </wpt>
    <wpt lat="39.380555556" lon="-106.136111111">
        <ele>13645.0</ele>
        <name>Wheeler Mountain</name>
        <desc>CO</desc>
    </wpt>
    <wpt lat="37.6075" lon="-107.581944444">
        <ele>13642.0</ele>
        <name>Grizzly Peak</name>
        <desc>CO</desc>
    </wpt>
    <wpt lat="37.9475" lon="-107.537777778">
        <ele>13642.0</ele>
        <name>Weed Mountain</name>
        <desc>CO</desc>
    </wpt>
    <wpt lat="39.443888889" lon="-105.969444444">
        <ele>13638.0</ele>
        <name>Bald Mountain</name>
        <desc>CO</desc>
    </wpt>
    <wpt lat="37.628611111" lon="-107.636111111">
        <ele>13638.0</ele>
        <name>Needle Mountains Peak Fifteen</name>
        <desc>CO</desc>
    </wpt>
    <wpt lat="39.112222222" lon="-107.059444444">
        <ele>13632.0</ele>
        <name>Hagerman Peak</name>
        <desc>CO</desc>
    </wpt>
    <wpt lat="39.134444444" lon="-106.563333333">
        <ele>13632.0</ele>
        <name>Twining Peak</name>
        <desc>CO</desc>
    </wpt>
    <wpt lat="37.704166667" lon="-107.546388889">
        <ele>13632.0</ele>
        <name>White Dome</name>
        <desc>CO</desc>
    </wpt>
    <wpt lat="37.558055556" lon="-105.475">
        <ele>13628.0</ele>
        <name>Hamilton Peak</name>
        <desc>CO</desc>
    </wpt>
    <wpt lat="39.132222222" lon="-106.521666667">
        <ele>13628.0</ele>
        <name>Mount Champion</name>
        <desc>CO</desc>
    </wpt>
    <wpt lat="38.087222222" lon="-107.533055556">
        <ele>13628.0</ele>
        <name>Redcliff</name>
        <desc>CO</desc>
    </wpt>
    <wpt lat="37.862222222" lon="-107.780277778">
        <ele>13619.0</ele>
        <name>Lookout Peak</name>
        <desc>CO</desc>
    </wpt>
    <wpt lat="37.670277778" lon="-107.548055556">
        <ele>13619.0</ele>
        <name>Mount Silex</name>
        <desc>CO</desc>
    </wpt>
    <wpt lat="39.322222222" lon="-106.169722222">
        <ele>13619.0</ele>
        <name>Mount Tweto</name>
        <desc>CO</desc>
    </wpt>
    <wpt lat="37.663611111" lon="-107.540277778">
        <ele>13619.0</ele>
        <name>The Guardian</name>
        <desc>CO</desc>
    </wpt>
    <wpt lat="39.443055556" lon="-106.102777778">
        <ele>13615.0</ele>
        <name>Tenmile Range Peak 10</name>
        <desc>CO</desc>
    </wpt>
    <wpt lat="38.08" lon="-107.533333333">
        <ele>13612.0</ele>
        <name>Coxcomb Peak</name>
        <desc>CO</desc>
    </wpt>
    <wpt lat="39.617222222" lon="-105.660833333">
        <ele>13609.0</ele>
        <name>Gray Wolf Mountain</name>
        <desc>CO</desc>
    </wpt>
    <wpt lat="37.944166667" lon="-105.558888889">
        <ele>13605.0</ele>
        <name>Pico Aislado</name>
        <desc>CO</desc>
    </wpt>
    <wpt lat="37.924444444" lon="-105.540277778">
        <ele>13605.0</ele>
        <name>Tijeras Peak</name>
        <desc>CO</desc>
    </wpt>
    <wpt lat="38.583055556" lon="-106.299166667">
        <ele>13599.0</ele>
        <name>Taylor Mountain</name>
        <desc>CO</desc>
    </wpt>
    <wpt lat="38.219444444" lon="-105.756388889">
        <ele>13596.0</ele>
        <name>Cottonwood Peak</name>
        <desc>CO</desc>
    </wpt>
    <wpt lat="39.431111111" lon="-106.105277778">
        <ele>13596.0</ele>
        <name>Father Dyer Peak</name>
        <desc>CO</desc>
    </wpt>
    <wpt lat="37.637777778" lon="-107.624722222">
        <ele>13596.0</ele>
        <name>Monitor Peak</name>
        <desc>CO</desc>
    </wpt>
    <wpt lat="39.011111111" lon="-106.453611111">
        <ele>13592.0</ele>
        <name>Mount Blaurock</name>
        <desc>CO</desc>
    </wpt>
    <wpt lat="37.375555556" lon="-104.993611111">
        <ele>13583.0</ele>
        <name>West Spanish Peak</name>
        <desc>CO</desc>
    </wpt>
    <wpt lat="39.72" lon="-105.8225">
        <ele>13579.0</ele>
        <name>Mount Parnassus</name>
        <desc>CO</desc>
    </wpt>
    <wpt lat="37.975" lon="-107.790277778">
        <ele>13576.0</ele>
        <name>Mount Emma</name>
        <desc>CO</desc>
    </wpt>
    <wpt lat="37.6975" lon="-107.557222222">
        <ele>13576.0</ele>
        <name>Needle Mountains Peak One</name>
        <desc>CO</desc>
    </wpt>
    <wpt lat="39.556111111" lon="-105.606388889">
        <ele>13576.0</ele>
        <name>Rosalie Peak</name>
        <desc>CO</desc>
    </wpt>
    <wpt lat="39.152222222" lon="-107.061388889">
        <ele>13573.0</ele>
        <name>Clark Peak</name>
        <desc>CO</desc>
    </wpt>
    <wpt lat="38.181666667" lon="-105.708333333">
        <ele>13573.0</ele>
        <name>Electric Peak</name>
        <desc>CO</desc>
    </wpt>
    <wpt lat="37.956944444" lon="-105.566666667">
        <ele>13569.0</ele>
        <name>Broken Hand Peak</name>
        <desc>CO</desc>
    </wpt>
    <wpt lat="37.959722222" lon="-107.541111111">
        <ele>13569.0</ele>
        <name>Gravel Mountain</name>
        <desc>CO</desc>
    </wpt>
    <wpt lat="38.632222222" lon="-106.2225">
        <ele>13569.0</ele>
        <name>Jones Peak</name>
        <desc>CO</desc>
    </wpt>
    <wpt lat="37.375833333" lon="-104.994166667">
        <ele>13569.0</ele>
        <name>Spanish Peaks</name>
        <desc>CO</desc>
    </wpt>
    <wpt lat="39.096944444" lon="-106.425555556">
        <ele>13566.0</ele>
        <name>Mount Cosgriff</name>
        <desc>CO</desc>
    </wpt>
    <wpt lat="39.256944444" lon="-106.181666667">
        <ele>13566.0</ele>
        <name>Mount Evans</name>
        <desc>CO</desc>
    </wpt>
    <wpt lat="39.76" lon="-106.340833333">
        <ele>13566.0</ele>
        <name>Mount Powell</name>
        <desc>CO</desc>
    </wpt>
    <wpt lat="39.136666667" lon="-106.163888889">
        <ele>13566.0</ele>
        <name>Weston Peak</name>
        <desc>CO</desc>
    </wpt>
    <wpt lat="37.617777778" lon="-107.57">
        <ele>13563.0</ele>
        <name>Greylock Mountain</name>
        <desc>CO</desc>
    </wpt>
    <wpt lat="39.059444444" lon="-106.851944444">
        <ele>13560.0</ele>
        <name>Hayden Peak</name>
        <desc>CO</desc>
    </wpt>
    <wpt lat="38.633333333" lon="-106.291944444">
        <ele>13556.0</ele>
        <name>Cyclone Mountain</name>
        <desc>CO</desc>
    </wpt>
    <wpt lat="37.589722222" lon="-105.519166667">
        <ele>13556.0</ele>
        <name>Twin Peaks</name>
        <desc>CO</desc>
    </wpt>
    <wpt lat="39.29" lon="-106.181388889">
        <ele>13546.0</ele>
        <name>Kuss Peak</name>
        <desc>CO</desc>
    </wpt>
    <wpt lat="38.024444444" lon="-105.601388889">
        <ele>13543.0</ele>
        <name>Fluted Peak</name>
        <desc>CO</desc>
    </wpt>
    <wpt lat="37.89" lon="-107.795833333">
        <ele>13540.0</ele>
        <name>Wasatch Mountain</name>
        <desc>CO</desc>
    </wpt>
    <wpt lat="39.570555556" lon="-105.631944444">
        <ele>13537.0</ele>
        <name>Epaulet Mountain</name>
        <desc>CO</desc>
    </wpt>
    <wpt lat="38.733888889" lon="-106.416111111">
        <ele>13533.0</ele>
        <name>Emma Burr Mountain</name>
        <desc>CO</desc>
    </wpt>
    <wpt lat="39.024444444" lon="-107.122777778">
        <ele>13533.0</ele>
        <name>Treasure Mountain</name>
        <desc>CO</desc>
    </wpt>
    <wpt lat="38.674722222" lon="-106.318333333">
        <ele>13530.0</ele>
        <name>Mount Mamma</name>
        <desc>CO</desc>
    </wpt>
    <wpt lat="40.249444444" lon="-105.641388889">
        <ele>13520.0</ele>
        <name>Chiefs Head Peak</name>
        <desc>CO</desc>
    </wpt>
    <wpt lat="37.880277778" lon="-107.536388889">
        <ele>13517.0</ele>
        <name>Crown Mountain</name>
        <desc>CO</desc>
    </wpt>
    <wpt lat="37.877777778" lon="-107.766111111">
        <ele>13514.0</ele>
        <name>Bridal Peak</name>
        <desc>CO</desc>
    </wpt>
    <wpt lat="38.065" lon="-107.495833333">
        <ele>13514.0</ele>
        <name>Matterhorn Peak</name>
        <desc>CO</desc>
    </wpt>
    <wpt lat="37.857222222" lon="-107.623055556">
        <ele>13514.0</ele>
        <name>Tower Mountain</name>
        <desc>CO</desc>
    </wpt>
    <wpt lat="37.289444444" lon="-105.165">
        <ele>13510.0</ele>
        <name>Trinchera Peak</name>
        <desc>CO</desc>
    </wpt>
    <wpt lat="38.020555556" lon="-107.737777778">
        <ele>13510.0</ele>
        <name>Whitehouse Mountain</name>
        <desc>CO</desc>
    </wpt>
    <wpt lat="37.653055556" lon="-107.574444444">
        <ele>13507.0</ele>
        <name>Leviathan Peak</name>
        <desc>CO</desc>
    </wpt>
    <wpt lat="39.003611111" lon="-106.438333333">
        <ele>13504.0</ele>
        <name>Ervin Peak</name>
        <desc>CO</desc>
    </wpt>
    <wpt lat="40.468333333" lon="-105.664166667">
        <ele>13504.0</ele>
        <name>Fairchild Mountain</name>
        <desc>CO</desc>
    </wpt>
    <wpt lat="37.5975" lon="-107.578055556">
        <ele>13504.0</ele>
        <name>McCauley Peak</name>
        <desc>CO</desc>
    </wpt>
    <wpt lat="37.628611111" lon="-107.605833333">
        <ele>13504.0</ele>
        <name>Needle Mountains Peak Eleven</name>
        <desc>CO</desc>
    </wpt>
    <wpt lat="37.258333333" lon="-105.154722222">
        <ele>13494.0</ele>
        <name>Cuatro Peak</name>
        <desc>CO</desc>
    </wpt>
    <wpt lat="38.145833333" lon="-105.676111111">
        <ele>13494.0</ele>
        <name>Mount Marcy</name>
        <desc>CO</desc>
    </wpt>
    <wpt lat="38.979444444" lon="-106.799722222">
        <ele>13491.0</ele>
        <name>Star Peak</name>
        <desc>CO</desc>
    </wpt>
    <wpt lat="37.930555556" lon="-107.493055556">
        <ele>13491.0</ele>
        <name>Whitecross Mountain</name>
        <desc>CO</desc>
    </wpt>
    <wpt lat="38.680277778" lon="-106.2925">
        <ele>13487.0</ele>
        <name>Boulder Mountain</name>
        <desc>CO</desc>
    </wpt>
    <wpt lat="37.947777778" lon="-105.551388889">
        <ele>13484.0</ele>
        <name>Milwaukee Peak</name>
        <desc>CO</desc>
    </wpt>
    <wpt lat="38.980555556" lon="-106.9275">
        <ele>13484.0</ele>
        <name>White Rock Mountain</name>
        <desc>CO</desc>
    </wpt>
    <wpt lat="37.689444444" lon="-107.619444444">
        <ele>13481.0</ele>
        <name>Graystone Peak</name>
        <desc>CO</desc>
    </wpt>
    <wpt lat="37.924722222" lon="-107.735555556">
        <ele>13481.0</ele>
        <name>Telluride Peak</name>
        <desc>CO</desc>
    </wpt>
    <wpt lat="39.018055556" lon="-106.394722222">
        <ele>13468.0</ele>
        <name>Quail Mountain</name>
        <desc>CO</desc>
    </wpt>
    <wpt lat="38.013611111" lon="-107.753055556">
        <ele>13464.0</ele>
        <name>Mount Ridgway</name>
        <desc>CO</desc>
    </wpt>
    <wpt lat="39.729166667" lon="-105.904722222">
        <ele>13464.0</ele>
        <name>Pettingell Peak</name>
        <desc>CO</desc>
    </wpt>
    <wpt lat="37.89" lon="-107.756111111">
        <ele>13464.0</ele>
        <name>Three Needles</name>
        <desc>CO</desc>
    </wpt>
    <wpt lat="37.799444444" lon="-107.545833333">
        <ele>13458.0</ele>
        <name>Canby Mountain</name>
        <desc>CO</desc>
    </wpt>
    <wpt lat="37.787222222" lon="-107.618333333">
        <ele>13458.0</ele>
        <name>Kendall Peak</name>
        <desc>CO</desc>
    </wpt>
    <wpt lat="39.110833333" lon="-107.052222222">
        <ele>13458.0</ele>
        <name>Snowmass Peak</name>
        <desc>CO</desc>
    </wpt>
    <wpt lat="37.908055556" lon="-107.609722222">
        <ele>13451.0</ele>
        <name>Hanson Peak</name>
        <desc>CO</desc>
    </wpt>
    <wpt lat="40.026666667" lon="-105.65">
        <ele>13451.0</ele>
        <name>North Arapaho Peak</name>
        <desc>CO</desc>
    </wpt>
    <wpt lat="37.896944444" lon="-107.786944444">
        <ele>13445.0</ele>
        <name>La Junta Peak</name>
        <desc>CO</desc>
    </wpt>
    <wpt lat="40.456944444" lon="-105.681111111">
        <ele>13445.0</ele>
        <name>Ypsilon Mountain</name>
        <desc>CO</desc>
    </wpt>
    <wpt lat="38.009166667" lon="-107.861666667">
        <ele>13441.0</ele>
        <name>Mears Peak</name>
        <desc>CO</desc>
    </wpt>
    <wpt lat="40.484722222" lon="-105.646388889">
        <ele>13438.0</ele>
        <name>Hagues Peak</name>
        <desc>CO</desc>
    </wpt>
    <wpt lat="37.593611111" lon="-105.455">
        <ele>13438.0</ele>
        <name>Iron Nipple</name>
        <desc>CO</desc>
    </wpt>
    <wpt lat="37.914722222" lon="-107.621388889">
        <ele>13435.0</ele>
        <name>Hurricane Peak</name>
        <desc>CO</desc>
    </wpt>
    <wpt lat="37.150833333" lon="-105.166944444">
        <ele>13435.0</ele>
        <name>Miranda Peak</name>
        <desc>CO</desc>
    </wpt>
    <wpt lat="37.696388889" lon="-107.5775">
        <ele>13435.0</ele>
        <name>Needle Mountains Peak Three</name>
        <desc>CO</desc>
    </wpt>
    <wpt lat="40.058333333" lon="-105.651111111">
        <ele>13432.0</ele>
        <name>Apache Peak</name>
        <desc>CO</desc>
    </wpt>
    <wpt lat="38.038611111" lon="-105.586111111">
        <ele>13428.0</ele>
        <name>Horn Peak</name>
        <desc>CO</desc>
    </wpt>
    <wpt lat="39.024444444" lon="-106.591666667">
        <ele>13418.0</ele>
        <name>Red Mountain</name>
        <desc>CO</desc>
    </wpt>
    <wpt lat="38.991944444" lon="-106.7825">
        <ele>13418.0</ele>
        <name>Taylor Peak</name>
        <desc>CO</desc>
    </wpt>
    <wpt lat="37.66" lon="-107.6075">
        <ele>13415.0</ele>
        <name>Needle Mountains Peak Four</name>
        <desc>CO</desc>
    </wpt>
    <wpt lat="37.650277778" lon="-107.566111111">
        <ele>13415.0</ele>
        <name>Vallecito Mountain</name>
        <desc>CO</desc>
    </wpt>
    <wpt lat="38.079166667" lon="-105.640277778">
        <ele>13412.0</ele>
        <name>Eureka Mountain</name>
        <desc>CO</desc>
    </wpt>
    <wpt lat="37.2375" lon="-105.152777778">
        <ele>13412.0</ele>
        <name>Mariquita Peak</name>
        <desc>CO</desc>
    </wpt>
    <wpt lat="37.765833333" lon="-107.605555556">
        <ele>13412.0</ele>
        <name>Mount Rhoda</name>
        <desc>CO</desc>
    </wpt>
    <wpt lat="39.3775" lon="-106.098333333">
        <ele>13405.0</ele>
        <name>North Star Mountain</name>
        <desc>CO</desc>
    </wpt>
    <wpt lat="37.859166667" lon="-107.6475">
        <ele>13405.0</ele>
        <name>Storm Peak</name>
        <desc>CO</desc>
    </wpt>
    <wpt lat="39.1925" lon="-106.191666667">
        <ele>13402.0</ele>
        <name>Finnback Knob</name>
        <desc>CO</desc>
    </wpt>
    <wpt lat="37.669722222" lon="-107.56">
        <ele>13402.0</ele>
        <name>Needle Mountains Peak Nine</name>
        <desc>CO</desc>
    </wpt>
    <wpt lat="40.490277778" lon="-105.645555556">
        <ele>13399.0</ele>
        <name>Rowe Peak</name>
        <desc>CO</desc>
    </wpt>
    <wpt lat="38.038888889" lon="-106.942222222">
        <ele>13396.0</ele>
        <name>Baldy Chato</name>
        <desc>CO</desc>
    </wpt>
    <wpt lat="39.0325" lon="-106.904722222">
        <ele>13392.0</ele>
        <name>Keefe Peak</name>
        <desc>CO</desc>
    </wpt>
    <wpt lat="40.249166667" lon="-105.626388889">
        <ele>13392.0</ele>
        <name>Pagoda Mountain</name>
        <desc>CO</desc>
    </wpt>
    <wpt lat="39.053055556" lon="-106.904166667">
        <ele>13389.0</ele>
        <name>Hunter Peak</name>
        <desc>CO</desc>
    </wpt>
    <wpt lat="38.965277778" lon="-106.543333333">
        <ele>13389.0</ele>
        <name>Jenkins Mountain</name>
        <desc>CO</desc>
    </wpt>
    <wpt lat="37.644166667" lon="-107.633055556">
        <ele>13389.0</ele>
        <name>The Index</name>
        <desc>CO</desc>
    </wpt>
    <wpt lat="40.053611111" lon="-105.646666667">
        <ele>13386.0</ele>
        <name>Navajo Peak</name>
        <desc>CO</desc>
    </wpt>
    <wpt lat="39.014444444" lon="-107.099444444">
        <ele>13386.0</ele>
        <name>Treasury Mountain</name>
        <desc>CO</desc>
    </wpt>
    <wpt lat="39.024166667" lon="-106.909444444">
        <ele>13382.0</ele>
        <name>Hilliard Pass</name>
        <desc>CO</desc>
    </wpt>
    <wpt lat="40.475" lon="-105.623611111">
        <ele>13382.0</ele>
        <name>Mummy Mountain</name>
        <desc>CO</desc>
    </wpt>
    <wpt lat="37.860833333" lon="-107.6">
        <ele>13379.0</ele>
        <name>Dome Mountain</name>
        <desc>CO</desc>
    </wpt>
    <wpt lat="39.745555556" lon="-105.800555556">
        <ele>13376.0</ele>
        <name>Engelmann Peak</name>
        <desc>CO</desc>
    </wpt>
    <wpt lat="37.955555556" lon="-107.103055556">
        <ele>13373.0</ele>
        <name>Baldy Cinco</name>
        <desc>CO</desc>
    </wpt>
    <wpt lat="39.838055556" lon="-105.713333333">
        <ele>13373.0</ele>
        <name>Parry Peak</name>
        <desc>CO</desc>
    </wpt>
    <wpt lat="39.615277778" lon="-105.6175">
        <ele>13373.0</ele>
        <name>Rogers Peak</name>
        <desc>CO</desc>
    </wpt>
    <wpt lat="39.478888889" lon="-106.594722222">
        <ele>13369.0</ele>
        <name>Gold Dust Peak</name>
        <desc>CO</desc>
    </wpt>
    <wpt lat="37.796388889" lon="-107.598888889">
        <ele>13369.0</ele>
        <name>Little Giant Peak</name>
        <desc>CO</desc>
    </wpt>
    <wpt lat="38.166944444" lon="-105.686944444">
        <ele>13366.0</ele>
        <name>De Anza Peak</name>
        <desc>CO</desc>
    </wpt>
    <wpt lat="38.656666667" lon="-106.222777778">
        <ele>13359.0</ele>
        <name>Mount White</name>
        <desc>CO</desc>
    </wpt>
    <wpt lat="38.627777778" lon="-106.283888889">
        <ele>13353.0</ele>
        <name>Carbonate Mountain</name>
        <desc>CO</desc>
    </wpt>
    <wpt lat="38.5925" lon="-106.357777778">
        <ele>13346.0</ele>
        <name>Monumental Peak</name>
        <desc>CO</desc>
    </wpt>
    <wpt lat="37.849166667" lon="-105.494444444">
        <ele>13346.0</ele>
        <name>Mount Herard</name>
        <desc>CO</desc>
    </wpt>
    <wpt lat="37.942777778" lon="-107.744166667">
        <ele>13343.0</ele>
        <name>Chicago Peak</name>
        <desc>CO</desc>
    </wpt>
    <wpt lat="40.02" lon="-105.649722222">
        <ele>13343.0</ele>
        <name>South Arapaho Peak</name>
        <desc>CO</desc>
    </wpt>
    <wpt lat="37.936666667" lon="-105.548611111">
        <ele>13340.0</ele>
        <name>Music Mountain</name>
        <desc>CO</desc>
    </wpt>
    <wpt lat="38.991944444" lon="-106.124444444">
        <ele>13340.0</ele>
        <name>West Buffalo Peak</name>
        <desc>CO</desc>
    </wpt>
    <wpt lat="39.198055556" lon="-106.178888889">
        <ele>13336.0</ele>
        <name>Peerless Mountain</name>
        <desc>CO</desc>
    </wpt>
    <wpt lat="39.644444444" lon="-105.848611111">
        <ele>13333.0</ele>
        <name>Grizzly Peak</name>
        <desc>CO</desc>
    </wpt>
    <wpt lat="37.929722222" lon="-107.545833333">
        <ele>13330.0</ele>
        <name>Cinnamon Mountain</name>
        <desc>CO</desc>
    </wpt>
    <wpt lat="37.646388889" lon="-107.589166667">
        <ele>13330.0</ele>
        <name>Gray Needle</name>
        <desc>CO</desc>
    </wpt>
    <wpt lat="37.920833333" lon="-107.637777778">
        <ele>13327.0</ele>
        <name>Brown Mountain</name>
        <desc>CO</desc>
    </wpt>
    <wpt lat="37.785833333" lon="-107.703888889">
        <ele>13327.0</ele>
        <name>Sultan Mountain</name>
        <desc>CO</desc>
    </wpt>
    <wpt lat="40.265555556" lon="-105.620555556">
        <ele>13320.0</ele>
        <name>Storm Peak</name>
        <desc>CO</desc>
    </wpt>
    <wpt lat="38.199444444" lon="-105.726944444">
        <ele>13313.0</ele>
        <name>Lakes Peak</name>
        <desc>CO</desc>
    </wpt>
    <wpt lat="37.249166667" lon="-105.153333333">
        <ele>13313.0</ele>
        <name>Mount Maxwell</name>
        <desc>CO</desc>
    </wpt>
    <wpt lat="37.708055556" lon="-107.573888889">
        <ele>13313.0</ele>
        <name>Needle Mountains Peak Two</name>
        <desc>CO</desc>
    </wpt>
    <wpt lat="37.591666667" lon="-107.615833333">
        <ele>13310.0</ele>
        <name>Aztec Mountain</name>
        <desc>CO</desc>
    </wpt>
    <wpt lat="37.904444444" lon="-105.543333333">
        <ele>13310.0</ele>
        <name>Cleveland Peak</name>
        <desc>CO</desc>
    </wpt>
    <wpt lat="39.774444444" lon="-106.350555556">
        <ele>13310.0</ele>
        <name>Eagles Nest</name>
        <desc>CO</desc>
    </wpt>
    <wpt lat="38.987222222" lon="-106.109444444">
        <ele>13310.0</ele>
        <name>East Buffalo Peak</name>
        <desc>CO</desc>
    </wpt>
    <wpt lat="37.79" lon="-107.824722222">
        <ele>13307.0</ele>
        <name>Beattie Peak</name>
        <desc>CO</desc>
    </wpt>
    <wpt lat="39.852222222" lon="-105.69">
        <ele>13307.0</ele>
        <name>James Peak</name>
        <desc>CO</desc>
    </wpt>
    <wpt lat="39.042222222" lon="-106.837777778">
        <ele>13307.0</ele>
        <name>Leahy Peak</name>
        <desc>CO</desc>
    </wpt>
    <wpt lat="38.981111111" lon="-106.834444444">
        <ele>13307.0</ele>
        <name>Pearl Mountain</name>
        <desc>CO</desc>
    </wpt>
    <wpt lat="37.238333333" lon="-105.153055556">
        <ele>13304.0</ele>
        <name>Maraquita Peak</name>
        <desc>CO</desc>
    </wpt>
    <wpt lat="37.905555556" lon="-107.738333333">
        <ele>13300.0</ele>
        <name>Trico Peak</name>
        <desc>CO</desc>
    </wpt>
    <wpt lat="37.888333333" lon="-107.621111111">
        <ele>13297.0</ele>
        <name>Emery Peak</name>
        <desc>CO</desc>
    </wpt>
    <wpt lat="39.172222222" lon="-107.068611111">
        <ele>13297.0</ele>
        <name>Mount Daly</name>
        <desc>CO</desc>
    </wpt>
    <wpt lat="39.458888889" lon="-105.9375">
        <ele>13297.0</ele>
        <name>Mount Guyot</name>
        <desc>CO</desc>
    </wpt>
    <wpt lat="37.840277778" lon="-108.096388889">
        <ele>13294.0</ele>
        <name>Dolores Peak</name>
        <desc>CO</desc>
    </wpt>
    <wpt lat="39.145" lon="-106.583055556">
        <ele>13294.0</ele>
        <name>Geissler Mountain</name>
        <desc>CO</desc>
    </wpt>
    <wpt lat="39.605277778" lon="-105.633611111">
        <ele>13294.0</ele>
        <name>Mount Warren</name>
        <desc>CO</desc>
    </wpt>
    <wpt lat="37.591388889" lon="-107.571666667">
        <ele>13291.0</ele>
        <name>Echo Mountain</name>
        <desc>CO</desc>
    </wpt>
    <wpt lat="38.9425" lon="-106.521944444">
        <ele>13291.0</ele>
        <name>Grizzly Peak</name>
        <desc>CO</desc>
    </wpt>
    <wpt lat="37.783333333" lon="-107.517777778">
        <ele>13291.0</ele>
        <name>Sheep Mountain</name>
        <desc>CO</desc>
    </wpt>
    <wpt lat="37.995555556" lon="-107.508611111">
        <ele>13291.0</ele>
        <name>Sunshine Mountain</name>
        <desc>CO</desc>
    </wpt>
    <wpt lat="37.224166667" lon="-105.159444444">
        <ele>13284.0</ele>
        <name>De Anza Peak</name>
        <desc>CO</desc>
    </wpt>
    <wpt lat="37.698888889" lon="-107.617222222">
        <ele>13284.0</ele>
        <name>Electric Peak</name>
        <desc>CO</desc>
    </wpt>
    <wpt lat="40.239166667" lon="-105.663333333">
        <ele>13281.0</ele>
        <name>Mount Alice</name>
        <desc>CO</desc>
    </wpt>
    <wpt lat="37.628888889" lon="-107.628055556">
        <ele>13281.0</ele>
        <name>Needle Mountains Peak Sixteen</name>
        <desc>CO</desc>
    </wpt>
    <wpt lat="38.125277778" lon="-105.644166667">
        <ele>13281.0</ele>
        <name>Spread Eagle Peak</name>
        <desc>CO</desc>
    </wpt>
    <wpt lat="39.045833333" lon="-106.631666667">
        <ele>13277.0</ele>
        <name>Truro Peak</name>
        <desc>CO</desc>
    </wpt>
    <wpt lat="37.793333333" lon="-107.628888889">
        <ele>13274.0</ele>
        <name>Kendall Mountain</name>
        <desc>CO</desc>
    </wpt>
    <wpt lat="37.76" lon="-107.606666667">
        <ele>13271.0</ele>
        <name>Whitehead Peak</name>
        <desc>CO</desc>
    </wpt>
    <wpt lat="38.138888889" lon="-105.714166667">
        <ele>13268.0</ele>
        <name>Mount Owen</name>
        <desc>CO</desc>
    </wpt>
    <wpt lat="38.975833333" lon="-106.324166667">
        <ele>13268.0</ele>
        <name>Waverly Mountain</name>
        <desc>CO</desc>
    </wpt>
    <wpt lat="38.091666667" lon="-105.655">
        <ele>13264.0</ele>
        <name>Hermit Peak</name>
        <desc>CO</desc>
    </wpt>
    <wpt lat="39.024166667" lon="-106.908888889">
        <ele>13264.0</ele>
        <name>Hilliard Peak</name>
        <desc>CO</desc>
    </wpt>
    <wpt lat="38.685555556" lon="-106.621111111">
        <ele>13261.0</ele>
        <name>Henry Mountain</name>
        <desc>CO</desc>
    </wpt>
    <wpt lat="38.974722222" lon="-106.361944444">
        <ele>13261.0</ele>
        <name>Pecks Peak</name>
        <desc>CO</desc>
    </wpt>
    <wpt lat="38.325" lon="-106.218055556">
        <ele>13258.0</ele>
        <name>Antora Peak</name>
        <desc>CO</desc>
    </wpt>
    <wpt lat="37.896944444" lon="-107.623888889">
        <ele>13258.0</ele>
        <name>Bonita Peak</name>
        <desc>CO</desc>
    </wpt>
    <wpt lat="39.432777778" lon="-106.473055556">
        <ele>13258.0</ele>
        <name>Whitney Peak</name>
        <desc>CO</desc>
    </wpt>
    <wpt lat="37.982777778" lon="-107.588055556">
        <ele>13254.0</ele>
        <name>Darley Mountain</name>
        <desc>CO</desc>
    </wpt>
    <wpt lat="37.955" lon="-105.533055556">
        <ele>13254.0</ele>
        <name>Marble Mountain</name>
        <desc>CO</desc>
    </wpt>
    <wpt lat="39.020277778" lon="-106.844444444">
        <ele>13251.0</ele>
        <name>Malemute Peak</name>
        <desc>CO</desc>
    </wpt>
    <wpt lat="37.961111111" lon="-107.778333333">
        <ele>13251.0</ele>
        <name>Mendoza Peak</name>
        <desc>CO</desc>
    </wpt>
    <wpt lat="37.883611111" lon="-107.829166667">
        <ele>13251.0</ele>
        <name>Palmyra Peak</name>
        <desc>CO</desc>
    </wpt>
    <wpt lat="37.957222222" lon="-107.563888889">
        <ele>13251.0</ele>
        <name>Seigal Mountain</name>
        <desc>CO</desc>
    </wpt>
    <wpt lat="39.553611111" lon="-105.823333333">
        <ele>13245.0</ele>
        <name>Geneva Peak</name>
        <desc>CO</desc>
    </wpt>
    <wpt lat="40.263333333" lon="-105.607222222">
        <ele>13245.0</ele>
        <name>Mount Lady Washington</name>
        <desc>CO</desc>
    </wpt>
    <wpt lat="37.664444444" lon="-107.622222222">
        <ele>13245.0</ele>
        <name>The Heisspitz</name>
        <desc>CO</desc>
    </wpt>
    <wpt lat="38.013333333" lon="-107.5775">
        <ele>13245.0</ele>
        <name>Wildhorse Peak</name>
        <desc>CO</desc>
    </wpt>
    <wpt lat="38.042777778" lon="-105.615">
        <ele>13241.0</ele>
        <name>Comanche Peak</name>
        <desc>CO</desc>
    </wpt>
    <wpt lat="37.638888889" lon="-107.594722222">
        <ele>13241.0</ele>
        <name>Knife Point</name>
        <desc>CO</desc>
    </wpt>
    <wpt lat="40.262777778" lon="-105.6575">
        <ele>13241.0</ele>
        <name>McHenrys Peak</name>
        <desc>CO</desc>
    </wpt>
    <wpt lat="37.828055556" lon="-107.561666667">
        <ele>13231.0</ele>
        <name>Galena Mountain</name>
        <desc>CO</desc>
    </wpt>
    <wpt lat="37.628333333" lon="-107.632222222">
        <ele>13231.0</ele>
        <name>Little Finger</name>
        <desc>CO</desc>
    </wpt>
    <wpt lat="37.837222222" lon="-107.790277778">
        <ele>13231.0</ele>
        <name>South Lookout Peak</name>
        <desc>CO</desc>
    </wpt>
    <wpt lat="37.628333333" lon="-107.608888889">
        <ele>13231.0</ele>
        <name>Twin Thumbs</name>
        <desc>CO</desc>
    </wpt>
    <wpt lat="39.616388889" lon="-105.814444444">
        <ele>13228.0</ele>
        <name>Ruby Mountain</name>
        <desc>CO</desc>
    </wpt>
    <wpt lat="38.053333333" lon="-105.618055556">
        <ele>13225.0</ele>
        <name>Spring Mountain</name>
        <desc>CO</desc>
    </wpt>
    <wpt lat="37.855555556" lon="-108.112222222">
        <ele>13222.0</ele>
        <name>Middle Peak</name>
        <desc>CO</desc>
    </wpt>
    <wpt lat="39.4775" lon="-106.460555556">
        <ele>13222.0</ele>
        <name>Notch Mountain</name>
        <desc>CO</desc>
    </wpt>
    <wpt lat="39.394722222" lon="-106.022222222">
        <ele>13222.0</ele>
        <name>Red Mountain</name>
        <desc>CO</desc>
    </wpt>
    <wpt lat="38.683333333" lon="-106.536666667">
        <ele>13218.0</ele>
        <name>Fairview Peak</name>
        <desc>CO</desc>
    </wpt>
    <wpt lat="39.678333333" lon="-105.857777778">
        <ele>13218.0</ele>
        <name>Mount Sniktau</name>
        <desc>CO</desc>
    </wpt>
    <wpt lat="38.042777778" lon="-107.471666667">
        <ele>13215.0</ele>
        <name>Broken Hill</name>
        <desc>CO</desc>
    </wpt>
    <wpt lat="37.915555556" lon="-107.606388889">
        <ele>13215.0</ele>
        <name>California Mountain</name>
        <desc>CO</desc>
    </wpt>
    <wpt lat="37.954444444" lon="-107.7025">
        <ele>13215.0</ele>
        <name>Hayden Mountain</name>
        <desc>CO</desc>
    </wpt>
    <wpt lat="39.552222222" lon="-105.815833333">
        <ele>13215.0</ele>
        <name>Landslide Peak</name>
        <desc>CO</desc>
    </wpt>
    <wpt lat="37.785" lon="-107.504444444">
        <ele>13212.0</ele>
        <name>Greenhalgh Mountain</name>
        <desc>CO</desc>
    </wpt>
    <wpt lat="37.445" lon="-108.088888889">
        <ele>13212.0</ele>
        <name>Hesperus Mountain</name>
        <desc>CO</desc>
    </wpt>
    <wpt lat="39.3675" lon="-106.414722222">
        <ele>13212.0</ele>
        <name>Homestake Peak</name>
        <desc>CO</desc>
    </wpt>
    <wpt lat="37.483333333" lon="-106.433888889">
        <ele>13209.0</ele>
        <name>Bennett Peak</name>
        <desc>CO</desc>
    </wpt>
    <wpt lat="37.970277778" lon="-107.588333333">
        <ele>13209.0</ele>
        <name>Engineer Mountain</name>
        <desc>CO</desc>
    </wpt>
    <wpt lat="40.098888889" lon="-105.616388889">
        <ele>13209.0</ele>
        <name>Mount Audubon</name>
        <desc>CO</desc>
    </wpt>
    <wpt lat="37.656944444" lon="-107.596666667">
        <ele>13209.0</ele>
        <name>Needle Mountains Peak Five</name>
        <desc>CO</desc>
    </wpt>
    <wpt lat="39.044444444" lon="-106.998611111">
        <ele>13202.0</ele>
        <name>Belleview Mountain</name>
        <desc>CO</desc>
    </wpt>
    <wpt lat="37.595" lon="-107.509444444">
        <ele>13202.0</ele>
        <name>Irving Peak</name>
        <desc>CO</desc>
    </wpt>
    <wpt lat="38.945555556" lon="-106.7525">
        <ele>13199.0</ele>
        <name>Italian Mountain</name>
        <desc>CO</desc>
    </wpt>
    <wpt lat="37.350833333" lon="-106.696666667">
        <ele>13199.0</ele>
        <name>Summit Peak</name>
        <desc>CO</desc>
    </wpt>
    <wpt lat="37.987222222" lon="-107.855">
        <ele>13195.0</ele>
        <name>Campbell Peak</name>
        <desc>CO</desc>
    </wpt>
    <wpt lat="37.438888889" lon="-108.078055556">
        <ele>13195.0</ele>
        <name>Mount Moss</name>
        <desc>CO</desc>
    </wpt>
    <wpt lat="37.671111111" lon="-107.566944444">
        <ele>13195.0</ele>
        <name>Needle Mountains Peak Eight</name>
        <desc>CO</desc>
    </wpt>
    <wpt lat="38.209444444" lon="-105.736666667">
        <ele>13195.0</ele>
        <name>Thirsty Peak</name>
        <desc>CO</desc>
    </wpt>
    <wpt lat="39.710277778" lon="-105.921111111">
        <ele>13189.0</ele>
        <name>Hagar Mountain</name>
        <desc>CO</desc>
    </wpt>
    <wpt lat="39.391111111" lon="-106.004722222">
        <ele>13189.0</ele>
        <name>Red Peak</name>
        <desc>CO</desc>
    </wpt>
    <wpt lat="39.63" lon="-105.855555556">
        <ele>13186.0</ele>
        <name>Lenawee Mountain</name>
        <desc>CO</desc>
    </wpt>
    <wpt lat="37.676111111" lon="-107.508333333">
        <ele>13186.0</ele>
        <name>Mount Nebo</name>
        <desc>CO</desc>
    </wpt>
    <wpt lat="39.284444444" lon="-106.158333333">
        <ele>13182.0</ele>
        <name>London Mountain</name>
        <desc>CO</desc>
    </wpt>
    <wpt lat="37.574166667" lon="-107.584722222">
        <ele>13179.0</ele>
        <name>Mount Valois</name>
        <desc>CO</desc>
    </wpt>
    <wpt lat="39.658888889" lon="-105.800277778">
        <ele>13176.0</ele>
        <name>Kelso Mountain</name>
        <desc>CO</desc>
    </wpt>
    <wpt lat="39.428611111" lon="-106.087222222">
        <ele>13176.0</ele>
        <name>Mount Helen</name>
        <desc>CO</desc>
    </wpt>
    <wpt lat="37.785277778" lon="-107.886111111">
        <ele>13176.0</ele>
        <name>Sheep Mountain</name>
        <desc>CO</desc>
    </wpt>
    <wpt lat="38.158888889" lon="-107.465833333">
        <ele>13176.0</ele>
        <name>Sheep Mountain</name>
        <desc>CO</desc>
    </wpt>
    <wpt lat="39.568888889" lon="-105.836944444">
        <ele>13172.0</ele>
        <name>Collier Mountain</name>
        <desc>CO</desc>
    </wpt>
    <wpt lat="39.568888889" lon="-105.836944444">
        <ele>13172.0</ele>
        <name>Santa Fe Peak</name>
        <desc>CO</desc>
    </wpt>
    <wpt lat="38.819722222" lon="-106.378888889">
        <ele>13172.0</ele>
        <name>Turner Peak</name>
        <desc>CO</desc>
    </wpt>
    <wpt lat="38.055277778" lon="-105.630555556">
        <ele>13172.0</ele>
        <name>Venable Peak</name>
        <desc>CO</desc>
    </wpt>
    <wpt lat="39.376944444" lon="-106.159166667">
        <ele>13169.0</ele>
        <name>Bartlett Mountain</name>
        <desc>CO</desc>
    </wpt>
    <wpt lat="37.807777778" lon="-107.593888889">
        <ele>13169.0</ele>
        <name>King Solomon Mountain</name>
        <desc>CO</desc>
    </wpt>
    <wpt lat="40.496666667" lon="-105.648333333">
        <ele>13169.0</ele>
        <name>Rowe Mountain</name>
        <desc>CO</desc>
    </wpt>
    <wpt lat="37.565277778" lon="-107.559444444">
        <ele>13166.0</ele>
        <name>Amherst Mountain</name>
        <desc>CO</desc>
    </wpt>
    <wpt lat="40.181944444" lon="-105.646388889">
        <ele>13166.0</ele>
        <name>Copeland Mountain</name>
        <desc>CO</desc>
    </wpt>
    <wpt lat="38.960277778" lon="-106.883888889">
        <ele>13166.0</ele>
        <name>Teocalli Mountain</name>
        <desc>CO</desc>
    </wpt>
    <wpt lat="39.616666667" lon="-105.757777778">
        <ele>13163.0</ele>
        <name>Mount Wilcox</name>
        <desc>CO</desc>
    </wpt>
    <wpt lat="37.288611111" lon="-106.570833333">
        <ele>13159.0</ele>
        <name>Conejos Peak</name>
        <desc>CO</desc>
    </wpt>
    <wpt lat="40.048055556" lon="-105.624166667">
        <ele>13156.0</ele>
        <name>Kiowa Peak</name>
        <desc>CO</desc>
    </wpt>
    <wpt lat="37.584722222" lon="-107.604166667">
        <ele>13153.0</ele>
        <name>Bullion Mountain</name>
        <desc>CO</desc>
    </wpt>
    <wpt lat="37.182222222" lon="-105.166111111">
        <ele>13153.0</ele>
        <name>Francisco Peak</name>
        <desc>CO</desc>
    </wpt>
    <wpt lat="37.776666667" lon="-107.695555556">
        <ele>13149.0</ele>
        <name>Grand Turk</name>
        <desc>CO</desc>
    </wpt>
    <wpt lat="40.265833333" lon="-105.664722222">
        <ele>13149.0</ele>
        <name>Powell Peak</name>
        <desc>CO</desc>
    </wpt>
    <wpt lat="37.663055556" lon="-107.726944444">
        <ele>13146.0</ele>
        <name>Twilight Peak</name>
        <desc>CO</desc>
    </wpt>
    <wpt lat="38.025277778" lon="-105.584166667">
        <ele>13140.0</ele>
        <name>Little Horn Peak</name>
        <desc>CO</desc>
    </wpt>
    <wpt lat="39.636388889" lon="-106.170833333">
        <ele>13136.0</ele>
        <name>Red Peak</name>
        <desc>CO</desc>
    </wpt>
    <wpt lat="39.142777778" lon="-106.995">
        <ele>13136.0</ele>
        <name>Willoughby Mountain</name>
        <desc>CO</desc>
    </wpt>
    <wpt lat="39.8275" lon="-105.718611111">
        <ele>13130.0</ele>
        <name>Mount Eva</name>
        <desc>CO</desc>
    </wpt>
    <wpt lat="37.705277778" lon="-107.531388889">
        <ele>13126.0</ele>
        <name>Hunchback Mountain</name>
        <desc>CO</desc>
    </wpt>
    <wpt lat="39.454444444" lon="-106.1975">
        <ele>13126.0</ele>
        <name>Jacque Peak</name>
        <desc>CO</desc>
    </wpt>
    <wpt lat="37.171944444" lon="-105.172777778">
        <ele>13126.0</ele>
        <name>Lomo Liso Mountain</name>
        <desc>CO</desc>
    </wpt>
    <wpt lat="39.805" lon="-105.736388889">
        <ele>13126.0</ele>
        <name>Mount Flora</name>
        <desc>CO</desc>
    </wpt>
    <wpt lat="39.563055556" lon="-105.828611111">
        <ele>13120.0</ele>
        <name>Sullivan Mountain</name>
        <desc>CO</desc>
    </wpt>
    <wpt lat="37.933888889" lon="-107.612222222">
        <ele>13120.0</ele>
        <name>Tuttle Mountain</name>
        <desc>CO</desc>
    </wpt>
    <wpt lat="37.686944444" lon="-107.630277778">
        <ele>13117.0</ele>
        <name>Point Pun</name>
        <desc>CO</desc>
    </wpt>
    <wpt lat="40.274444444" lon="-105.680833333">
        <ele>13117.0</ele>
        <name>Taylor Peak</name>
        <desc>CO</desc>
    </wpt>
    <wpt lat="39.148055556" lon="-106.966388889">
        <ele>13113.0</ele>
        <name>Baldy Mountain</name>
        <desc>CO</desc>
    </wpt>
    <wpt lat="38.229166667" lon="-105.7225">
        <ele>13107.0</ele>
        <name>Eagle Peak</name>
        <desc>CO</desc>
    </wpt>
    <wpt lat="38.772777778" lon="-106.394444444">
        <ele>13104.0</ele>
        <name>Jones Mountain</name>
        <desc>CO</desc>
    </wpt>
    <wpt lat="37.615833333" lon="-107.485277778">
        <ele>13104.0</ele>
        <name>Peters Peak</name>
        <desc>CO</desc>
    </wpt>
    <wpt lat="39.017222222" lon="-106.961666667">
        <ele>13104.0</ele>
        <name>Precarious Peak</name>
        <desc>CO</desc>
    </wpt>
    <wpt lat="39.733611111" lon="-105.806111111">
        <ele>13104.0</ele>
        <name>Robeson Peak</name>
        <desc>CO</desc>
    </wpt>
    <wpt lat="37.573888889" lon="-106.981666667">
        <ele>13104.0</ele>
        <name>South River Peak</name>
        <desc>CO</desc>
    </wpt>
    <wpt lat="38.341388889" lon="-105.889444444">
        <ele>13100.0</ele>
        <name>Bushnell Peak</name>
        <desc>CO</desc>
    </wpt>
    <wpt lat="39.012777778" lon="-106.575833333">
        <ele>13097.0</ele>
        <name>Middle Mountain</name>
        <desc>CO</desc>
    </wpt>
    <wpt lat="37.659166667" lon="-107.723611111">
        <ele>13097.0</ele>
        <name>South Twilight Peak</name>
        <desc>CO</desc>
    </wpt>
    <wpt lat="37.772222222" lon="-107.702777778">
        <ele>13097.0</ele>
        <name>Spencer Peak</name>
        <desc>CO</desc>
    </wpt>
    <wpt lat="39.451666667" lon="-106.105555556">
        <ele>13097.0</ele>
        <name>Tenmile Range Peak 9</name>
        <desc>CO</desc>
    </wpt>
    <wpt lat="37.604722222" lon="-107.560555556">
        <ele>13097.0</ele>
        <name>Thunder Mountain</name>
        <desc>CO</desc>
    </wpt>
    <wpt lat="37.373333333" lon="-106.691111111">
        <ele>13084.0</ele>
        <name>Montezuma Peak</name>
        <desc>CO</desc>
    </wpt>
    <wpt lat="40.046388889" lon="-105.638333333">
        <ele>13081.0</ele>
        <name>Arikaree Peak</name>
        <desc>CO</desc>
    </wpt>
    <wpt lat="40.170277778" lon="-105.666666667">
        <ele>13081.0</ele>
        <name>Ogalalla Peak</name>
        <desc>CO</desc>
    </wpt>
    <wpt lat="39.69" lon="-106.231388889">
        <ele>13074.0</ele>
        <name>Keller Mountain</name>
        <desc>CO</desc>
    </wpt>
    <wpt lat="37.707777778" lon="-107.688888889">
        <ele>13074.0</ele>
        <name>Snowdon Peak</name>
        <desc>CO</desc>
    </wpt>
    <wpt lat="40.202777778" lon="-105.677222222">
        <ele>13067.0</ele>
        <name>Isolation Peak</name>
        <desc>CO</desc>
    </wpt>
    <wpt lat="37.694722222" lon="-107.636388889">
        <ele>13067.0</ele>
        <name>Mount Garfield</name>
        <desc>CO</desc>
    </wpt>
    <wpt lat="37.669166667" lon="-107.728055556">
        <ele>13064.0</ele>
        <name>North Twilight Peak</name>
        <desc>CO</desc>
    </wpt>
    <wpt lat="38.028888889" lon="-107.564722222">
        <ele>13061.0</ele>
        <name>Blackwall Mountain</name>
        <desc>CO</desc>
    </wpt>
    <wpt lat="37.582222222" lon="-107.601111111">
        <ele>13061.0</ele>
        <name>Silver Mesa</name>
        <desc>CO</desc>
    </wpt>
    <wpt lat="37.649444444" lon="-107.721666667">
        <ele>13061.0</ele>
        <name>West Needle Mountain</name>
        <desc>CO</desc>
    </wpt>
    <wpt lat="38.697777778" lon="-106.451388889">
        <ele>13054.0</ele>
        <name>Fitzpatrick Peak</name>
        <desc>CO</desc>
    </wpt>
    <wpt lat="38.965" lon="-106.483333333">
        <ele>13054.0</ele>
        <name>Virginia Peak</name>
        <desc>CO</desc>
    </wpt>
    <wpt lat="39.494444444" lon="-105.866388889">
        <ele>13054.0</ele>
        <name>Whale Peak</name>
        <desc>CO</desc>
    </wpt>
    <wpt lat="40.443888889" lon="-105.688888889">
        <ele>13051.0</ele>
        <name>Mount Chiquita</name>
        <desc>CO</desc>
    </wpt>
    <wpt lat="37.546111111" lon="-107.557777778">
        <ele>13051.0</ele>
        <name>Sheep Mountain</name>
        <desc>CO</desc>
    </wpt>
    <wpt lat="39.406944444" lon="-105.948888889">
        <ele>13048.0</ele>
        <name>Boreas Mountain</name>
        <desc>CO</desc>
    </wpt>
    <wpt lat="37.447222222" lon="-108.076944444">
        <ele>13048.0</ele>
        <name>Centennial Peak</name>
        <desc>CO</desc>
    </wpt>
    <wpt lat="37.794444444" lon="-107.561666667">
        <ele>13048.0</ele>
        <name>Green Mountain</name>
        <desc>CO</desc>
    </wpt>
    <wpt lat="38.383055556" lon="-105.945277778">
        <ele>13048.0</ele>
        <name>Hunts Peak</name>
        <desc>CO</desc>
    </wpt>
    <wpt lat="39.243611111" lon="-106.195">
        <ele>13044.0</ele>
        <name>West Dyer Mountain</name>
        <desc>CO</desc>
    </wpt>
    <wpt lat="38.718055556" lon="-107.199166667">
        <ele>13041.0</ele>
        <name>West Elk Peak</name>
        <desc>CO</desc>
    </wpt>
    <wpt lat="37.861111111" lon="-107.378611111">
        <ele>13038.0</ele>
        <name>Bent Peak</name>
        <desc>CO</desc>
    </wpt>
    <wpt lat="37.940555556" lon="-107.586388889">
        <ele>13038.0</ele>
        <name>Houghton Mountain</name>
        <desc>CO</desc>
    </wpt>
    <wpt lat="39.380833333" lon="-106.520277778">
        <ele>13031.0</ele>
        <name>Savage Peak</name>
        <desc>CO</desc>
    </wpt>
    <wpt lat="38.016111111" lon="-107.847222222">
        <ele>13028.0</ele>
        <name>Wolcott Mountain</name>
        <desc>CO</desc>
    </wpt>
    <wpt lat="37.567777778" lon="-107.553611111">
        <ele>13025.0</ele>
        <name>Organ Mountain</name>
        <desc>CO</desc>
    </wpt>
    <wpt lat="38.909166667" lon="-107.125">
        <ele>13021.0</ele>
        <name>Mount Owen</name>
        <desc>CO</desc>
    </wpt>
    <wpt lat="39.264722222" lon="-106.142222222">
        <ele>13021.0</ele>
        <name>Pennsylvania Mountain</name>
        <desc>CO</desc>
    </wpt>
    <wpt lat="37.428333333" lon="-108.086666667">
        <ele>13021.0</ele>
        <name>Spiller Peak</name>
        <desc>CO</desc>
    </wpt>
    <wpt lat="37.428611111" lon="-108.076666667">
        <ele>13018.0</ele>
        <name>Babcock Peak</name>
        <desc>CO</desc>
    </wpt>
    <wpt lat="37.557222222" lon="-107.565">
        <ele>13018.0</ele>
        <name>Emerson Mountain</name>
        <desc>CO</desc>
    </wpt>
    <wpt lat="38.967777778" lon="-106.430833333">
        <ele>13018.0</ele>
        <name>Middle Mountain</name>
        <desc>CO</desc>
    </wpt>
    <wpt lat="37.770277778" lon="-107.788611111">
        <ele>13018.0</ele>
        <name>Twin Sisters</name>
        <desc>CO</desc>
    </wpt>
    <wpt lat="37.582222222" lon="-107.593888889">
        <ele>13015.0</ele>
        <name>Florida Mountain</name>
        <desc>CO</desc>
    </wpt>
    <wpt lat="37.956666667" lon="-107.739166667">
        <ele>13015.0</ele>
        <name>United States Mountain</name>
        <desc>CO</desc>
    </wpt>
    <wpt lat="40.098333333" lon="-105.632777778">
        <ele>13012.0</ele>
        <name>Paiute Peak</name>
        <desc>CO</desc>
    </wpt>
    <wpt lat="39.445555556" lon="-106.581388889">
        <ele>13008.0</ele>
        <name>Eagle Peak</name>
        <desc>CO</desc>
    </wpt>
    <wpt lat="37.589444444" lon="-107.626666667">
        <ele>12999.0</ele>
        <name>Mount Kennedy</name>
        <desc>CO</desc>
    </wpt>
    <wpt lat="37.441666667" lon="-108.080277778">
        <ele>12995.0</ele>
        <name>Lavender Peak</name>
        <desc>CO</desc>
    </wpt>
    <wpt lat="37.835833333" lon="-107.950555556">
        <ele>12995.0</ele>
        <name>Lizard Head</name>
        <desc>CO</desc>
    </wpt>
    <wpt lat="39.042222222" lon="-106.423333333">
        <ele>12982.0</ele>
        <name>Twin Peaks</name>
        <desc>CO</desc>
    </wpt>
    <wpt lat="38.606111111" lon="-106.365">
        <ele>12982.0</ele>
        <name>Van Wirt Mountain</name>
        <desc>CO</desc>
    </wpt>
    <wpt lat="38.368333333" lon="-105.919722222">
        <ele>12979.0</ele>
        <name>Red Mountain</name>
        <desc>CO</desc>
    </wpt>
    <wpt lat="37.968888889" lon="-107.795">
        <ele>12976.0</ele>
        <name>Greenback Mountain</name>
        <desc>CO</desc>
    </wpt>
    <wpt lat="39.472777778" lon="-106.1025">
        <ele>12976.0</ele>
        <name>Tenmile Range Peak 8</name>
        <desc>CO</desc>
    </wpt>
    <wpt lat="37.904444444" lon="-106.634722222">
        <ele>12972.0</ele>
        <name>Mesa Mountain</name>
        <desc>CO</desc>
    </wpt>
    <wpt lat="38.679444444" lon="-106.611111111">
        <ele>12972.0</ele>
        <name>Square Top Mountain</name>
        <desc>CO</desc>
    </wpt>
    <wpt lat="37.599444444" lon="-107.591111111">
        <ele>12969.0</ele>
        <name>Hope Mountain</name>
        <desc>CO</desc>
    </wpt>
    <wpt lat="37.848055556" lon="-107.545">
        <ele>12969.0</ele>
        <name>Middle Mountain</name>
        <desc>CO</desc>
    </wpt>
    <wpt lat="37.636666667" lon="-107.208888889">
        <ele>12966.0</ele>
        <name>Chief Mountain</name>
        <desc>CO</desc>
    </wpt>
    <wpt lat="37.794722222" lon="-107.732777778">
        <ele>12962.0</ele>
        <name>Bear Mountain</name>
        <desc>CO</desc>
    </wpt>
    <wpt lat="38.961666667" lon="-106.754166667">
        <ele>12956.0</ele>
        <name>Lambertson Peak</name>
        <desc>CO</desc>
    </wpt>
    <wpt lat="40.067222222" lon="-105.638888889">
        <ele>12956.0</ele>
        <name>Shoshoni Peak</name>
        <desc>CO</desc>
    </wpt>
    <wpt lat="40.606666667" lon="-105.93">
        <ele>12949.0</ele>
        <name>Clark Peak</name>
        <desc>CO</desc>
    </wpt>
    <wpt lat="38.005277778" lon="-107.886388889">
        <ele>12949.0</ele>
        <name>Ruffner Mountain</name>
        <desc>CO</desc>
    </wpt>
    <wpt lat="38.030555556" lon="-107.909444444">
        <ele>12946.0</ele>
        <name>Hayden Peak</name>
        <desc>CO</desc>
    </wpt>
    <wpt lat="38.003333333" lon="-105.585277778">
        <ele>12946.0</ele>
        <name>Little Baldy Mountain</name>
        <desc>CO</desc>
    </wpt>
    <wpt lat="38.991666667" lon="-107.103333333">
        <ele>12946.0</ele>
        <name>Purple Mountain</name>
        <desc>CO</desc>
    </wpt>
    <wpt lat="39.385833333" lon="-106.161388889">
        <ele>12939.0</ele>
        <name>Little Bartlett Mountain</name>
        <desc>CO</desc>
    </wpt>
    <wpt lat="39.263055556" lon="-107.175833333">
        <ele>12939.0</ele>
        <name>Mount Sopris</name>
        <desc>CO</desc>
    </wpt>
    <wpt lat="39.796111111" lon="-105.855">
        <ele>12939.0</ele>
        <name>Vasquez Peak</name>
        <desc>CO</desc>
    </wpt>
    <wpt lat="37.858333333" lon="-107.934166667">
        <ele>12936.0</ele>
        <name>Sunshine Mountain</name>
        <desc>CO</desc>
    </wpt>
    <wpt lat="40.088333333" lon="-105.633611111">
        <ele>12933.0</ele>
        <name>Mount Toll</name>
        <desc>CO</desc>
    </wpt>
    <wpt lat="37.874166667" lon="-107.836111111">
        <ele>12933.0</ele>
        <name>Silver Mountain</name>
        <desc>CO</desc>
    </wpt>
    <wpt lat="37.992222222" lon="-107.542777778">
        <ele>12930.0</ele>
        <name>Dolly Varden Mountain</name>
        <desc>CO</desc>
    </wpt>
    <wpt lat="37.699166667" lon="-107.806944444">
        <ele>12926.0</ele>
        <name>Engineer Mountain</name>
        <desc>CO</desc>
    </wpt>
    <wpt lat="37.898611111" lon="-107.5825">
        <ele>12926.0</ele>
        <name>Eureka Mountain</name>
        <desc>CO</desc>
    </wpt>
    <wpt lat="38.053611111" lon="-107.373888889">
        <ele>12923.0</ele>
        <name>Crystal Peak</name>
        <desc>CO</desc>
    </wpt>
    <wpt lat="40.371111111" lon="-105.7575">
        <ele>12920.0</ele>
        <name>Mount Julian</name>
        <desc>CO</desc>
    </wpt>
    <wpt lat="39.061666667" lon="-106.533333333">
        <ele>12920.0</ele>
        <name>Star Mountain</name>
        <desc>CO</desc>
    </wpt>
    <wpt lat="40.081666667" lon="-105.6325">
        <ele>12917.0</ele>
        <name>Pawnee Peak</name>
        <desc>CO</desc>
    </wpt>
    <wpt lat="38.611111111" lon="-106.345">
        <ele>12913.0</ele>
        <name>Sewanee Peak</name>
        <desc>CO</desc>
    </wpt>
    <wpt lat="38.576944444" lon="-106.351111111">
        <ele>12913.0</ele>
        <name>Vulcan Mountain</name>
        <desc>CO</desc>
    </wpt>
    <wpt lat="39.054166667" lon="-106.565">
        <ele>12907.0</ele>
        <name>Ouray Peak</name>
        <desc>CO</desc>
    </wpt>
    <wpt lat="37.706111111" lon="-107.351388889">
        <ele>12900.0</ele>
        <name>Simpson Mountain</name>
        <desc>CO</desc>
    </wpt>
    <wpt lat="39.216666667" lon="-106.2025">
        <ele>12900.0</ele>
        <name>West Sheridan</name>
        <desc>CO</desc>
    </wpt>
    <wpt lat="38.629166667" lon="-106.342222222">
        <ele>12897.0</ele>
        <name>Pomeroy Mountain</name>
        <desc>CO</desc>
    </wpt>
    <wpt lat="39.594722222" lon="-105.795">
        <ele>12894.0</ele>
        <name>Decatur Mountain</name>
        <desc>CO</desc>
    </wpt>
    <wpt lat="40.354444444" lon="-105.720555556">
        <ele>12894.0</ele>
        <name>Stones Peak</name>
        <desc>CO</desc>
    </wpt>
    <wpt lat="39.535833333" lon="-106.121111111">
        <ele>12894.0</ele>
        <name>Tenmile Peak</name>
        <desc>CO</desc>
    </wpt>
    <wpt lat="40.469444444" lon="-105.895">
        <ele>12890.0</ele>
        <name>Mount Richthofen</name>
        <desc>CO</desc>
    </wpt>
    <wpt lat="39.668888889" lon="-105.776388889">
        <ele>12887.0</ele>
        <name>Ganley Mountain</name>
        <desc>CO</desc>
    </wpt>
    <wpt lat="39.583333333" lon="-105.808333333">
        <ele>12887.0</ele>
        <name>Revenue Mountain</name>
        <desc>CO</desc>
    </wpt>
    <wpt lat="39.450833333" lon="-106.599722222">
        <ele>12880.0</ele>
        <name>Fools Peak</name>
        <desc>CO</desc>
    </wpt>
    <wpt lat="37.901666667" lon="-107.689166667">
        <ele>12877.0</ele>
        <name>Red Mountain Number 3</name>
        <desc>CO</desc>
    </wpt>
    <wpt lat="37.835" lon="-107.849444444">
        <ele>12877.0</ele>
        <name>Yellow Mountain</name>
        <desc>CO</desc>
    </wpt>
    <wpt lat="39.994444444" lon="-105.683055556">
        <ele>12871.0</ele>
        <name>Mount Jasper</name>
        <desc>CO</desc>
    </wpt>
    <wpt lat="39.345555556" lon="-106.253611111">
        <ele>12867.0</ele>
        <name>Buckeye Peak</name>
        <desc>CO</desc>
    </wpt>
    <wpt lat="39.495833333" lon="-105.631388889">
        <ele>12867.0</ele>
        <name>Mount Logan</name>
        <desc>CO</desc>
    </wpt>
    <wpt lat="39.799444444" lon="-105.724166667">
        <ele>12864.0</ele>
        <name>Breckinridge Peak</name>
        <desc>CO</desc>
    </wpt>
    <wpt lat="39.484166667" lon="-105.883611111">
        <ele>12861.0</ele>
        <name>Glacier Peak</name>
        <desc>CO</desc>
    </wpt>
    <wpt lat="39.1" lon="-107.100555556">
        <ele>12861.0</ele>
        <name>Meadow Mountain</name>
        <desc>CO</desc>
    </wpt>
    <wpt lat="38.972777778" lon="-106.426944444">
        <ele>12857.0</ele>
        <name>Cross Mountain</name>
        <desc>CO</desc>
    </wpt>
    <wpt lat="39.238333333" lon="-106.202222222">
        <ele>12857.0</ele>
        <name>East Ball Mountain</name>
        <desc>CO</desc>
    </wpt>
    <wpt lat="39.582777778" lon="-105.820833333">
        <ele>12857.0</ele>
        <name>Silver Mountain</name>
        <desc>CO</desc>
    </wpt>
    <wpt lat="39.121666667" lon="-106.206111111">
        <ele>12857.0</ele>
        <name>South Peak</name>
        <desc>CO</desc>
    </wpt>
    <wpt lat="39.814166667" lon="-105.716111111">
        <ele>12854.0</ele>
        <name>Witter Peak</name>
        <desc>CO</desc>
    </wpt>
    <wpt lat="38.700277778" lon="-107.1875">
        <ele>12851.0</ele>
        <name>North Baldy Mountain</name>
        <desc>CO</desc>
    </wpt>
    <wpt lat="38.333611111" lon="-106.214166667">
        <ele>12851.0</ele>
        <name>Sheep Mountain</name>
        <desc>CO</desc>
    </wpt>
    <wpt lat="36.995555556" lon="-105.296388889">
        <ele>12851.0</ele>
        <name>State Line Peak</name>
        <desc>NM</desc>
    </wpt>
    <wpt lat="37.657222222" lon="-106.9375">
        <ele>12848.0</ele>
        <name>Fisher Mountain</name>
        <desc>CO</desc>
    </wpt>
    <wpt lat="39.514722222" lon="-106.116666667">
        <ele>12848.0</ele>
        <name>Tenmile Range Peak 5</name>
        <desc>CO</desc>
    </wpt>
    <wpt lat="39.032777778" lon="-106.635">
        <ele>12844.0</ele>
        <name>Larson Peak</name>
        <desc>CO</desc>
    </wpt>
    <wpt lat="40.371666667" lon="-105.779166667">
        <ele>12844.0</ele>
        <name>Mount Ida</name>
        <desc>CO</desc>
    </wpt>
    <wpt lat="37.795833333" lon="-107.613333333">
        <ele>12844.0</ele>
        <name>Round Mountain</name>
        <desc>CO</desc>
    </wpt>
    <wpt lat="37.898055556" lon="-107.050833333">
        <ele>12844.0</ele>
        <name>Table Mountain</name>
        <desc>CO</desc>
    </wpt>
    <wpt lat="37.386111111" lon="-106.680277778">
        <ele>12831.0</ele>
        <name>Long Trek Mountain</name>
        <desc>CO</desc>
    </wpt>
    <wpt lat="37.496666667" lon="-106.402222222">
        <ele>12831.0</ele>
        <name>Pintada Mountain</name>
        <desc>CO</desc>
    </wpt>
    <wpt lat="37.845" lon="-107.622222222">
        <ele>12825.0</ele>
        <name>Macomber Peak</name>
        <desc>CO</desc>
    </wpt>
    <wpt lat="40.006944444" lon="-105.688333333">
        <ele>12821.0</ele>
        <name>Mount Neva</name>
        <desc>CO</desc>
    </wpt>
    <wpt lat="37.914722222" lon="-107.583611111">
        <ele>12821.0</ele>
        <name>Treasure Mountain</name>
        <desc>CO</desc>
    </wpt>
    <wpt lat="37.911944444" lon="-107.790277778">
        <ele>12818.0</ele>
        <name>Ballard Mountain</name>
        <desc>CO</desc>
    </wpt>
    <wpt lat="38.176388889" lon="-105.72">
        <ele>12818.0</ele>
        <name>Mount Niehardt</name>
        <desc>CO</desc>
    </wpt>
    <wpt lat="39.193611111" lon="-106.111944444">
        <ele>12818.0</ele>
        <name>Sheep Mountain</name>
        <desc>CO</desc>
    </wpt>
    <wpt lat="39.864444444" lon="-105.947222222">
        <ele>12815.0</ele>
        <name>Byers Peak</name>
        <desc>CO</desc>
    </wpt>
    <wpt lat="40.367222222" lon="-105.774166667">
        <ele>12815.0</ele>
        <name>Chief Cheley Peak</name>
        <desc>CO</desc>
    </wpt>
    <wpt lat="37.978611111" lon="-107.333333333">
        <ele>12815.0</ele>
        <name>Red Mountain</name>
        <desc>CO</desc>
    </wpt>
    <wpt lat="37.962222222" lon="-107.640555556">
        <ele>12812.0</ele>
        <name>Abrams Mountain</name>
        <desc>CO</desc>
    </wpt>
    <wpt lat="38.553055556" lon="-106.349722222">
        <ele>12812.0</ele>
        <name>Bald Mountain</name>
        <desc>CO</desc>
    </wpt>
    <wpt lat="38.685555556" lon="-106.589444444">
        <ele>12808.0</ele>
        <name>Broncho Mountain</name>
        <desc>CO</desc>
    </wpt>
    <wpt lat="37.880277778" lon="-107.689722222">
        <ele>12805.0</ele>
        <name>McMillan Peak</name>
        <desc>CO</desc>
    </wpt>
    <wpt lat="38.940277778" lon="-106.471944444">
        <ele>12798.0</ele>
        <name>Granite Mountain</name>
        <desc>CO</desc>
    </wpt>
    <wpt lat="38.249722222" lon="-105.738611111">
        <ele>12795.0</ele>
        <name>Baldy Peak</name>
        <desc>CO</desc>
    </wpt>
    <wpt lat="38.073055556" lon="-105.712222222">
        <ele>12795.0</ele>
        <name>Gibson Peak</name>
        <desc>CO</desc>
    </wpt>
    <wpt lat="39.085833333" lon="-106.693333333">
        <ele>12795.0</ele>
        <name>New York Peak</name>
        <desc>CO</desc>
    </wpt>
    <wpt lat="39.543055556" lon="-106.12">
        <ele>12795.0</ele>
        <name>Tenmile Range Peak 1</name>
        <desc>CO</desc>
    </wpt>
    <wpt lat="39.416111111" lon="-106.580277778">
        <ele>12792.0</ele>
        <name>Avalanche Peak</name>
        <desc>CO</desc>
    </wpt>
    <wpt lat="38.033333333" lon="-107.244444444">
        <ele>12792.0</ele>
        <name>Mesa Seco</name>
        <desc>CO</desc>
    </wpt>
    <wpt lat="38.993611111" lon="-107.046111111">
        <ele>12789.0</ele>
        <name>Mount Baldy</name>
        <desc>CO</desc>
    </wpt>
    <wpt lat="39.521944444" lon="-106.121666667">
        <ele>12785.0</ele>
        <name>Tenmile Range Peak 4</name>
        <desc>CO</desc>
    </wpt>
    <wpt lat="39.6125" lon="-105.8275">
        <ele>12782.0</ele>
        <name>Cooper Mountain</name>
        <desc>CO</desc>
    </wpt>
    <wpt lat="39.520833333" lon="-106.508611111">
        <ele>12782.0</ele>
        <name>Grouse Mountain</name>
        <desc>CO</desc>
    </wpt>
    <wpt lat="38.645" lon="-106.417222222">
        <ele>12782.0</ele>
        <name>Mount Helmers</name>
        <desc>CO</desc>
    </wpt>
    <wpt lat="37.928611111" lon="-107.755555556">
        <ele>12779.0</ele>
        <name>Ajax Peak</name>
        <desc>CO</desc>
    </wpt>
    <wpt lat="38.439444444" lon="-106.246388889">
        <ele>12775.0</ele>
        <name>Chipeta Mountain</name>
        <desc>CO</desc>
    </wpt>
    <wpt lat="37.543333333" lon="-106.870833333">
        <ele>12775.0</ele>
        <name>Mount Hope</name>
        <desc>CO</desc>
    </wpt>
    <wpt lat="37.956666667" lon="-107.344166667">
        <ele>12772.0</ele>
        <name>Grassy Mountain</name>
        <desc>CO</desc>
    </wpt>
    <wpt lat="39.627777778" lon="-105.732222222">
        <ele>12772.0</ele>
        <name>Otter Mountain</name>
        <desc>CO</desc>
    </wpt>
    <wpt lat="37.104444444" lon="-106.626944444">
        <ele>12769.0</ele>
        <name>Banded Peak</name>
        <desc>CO</desc>
    </wpt>
    <wpt lat="40.365833333" lon="-105.766666667">
        <ele>12762.0</ele>
        <name>Cracktop</name>
        <desc>CO</desc>
    </wpt>
    <wpt lat="40.426944444" lon="-105.898888889">
        <ele>12762.0</ele>
        <name>Howard Mountain</name>
        <desc>CO</desc>
    </wpt>
    <wpt lat="38.327222222" lon="-105.882777778">
        <ele>12756.0</ele>
        <name>Mount Otto</name>
        <desc>CO</desc>
    </wpt>
    <wpt lat="38.912777778" lon="-107.12">
        <ele>12752.0</ele>
        <name>Purple Peak</name>
        <desc>CO</desc>
    </wpt>
    <wpt lat="39.616666667" lon="-106.1425">
        <ele>12749.0</ele>
        <name>Buffalo Mountain</name>
        <desc>CO</desc>
    </wpt>
    <wpt lat="38.670833333" lon="-106.606111111">
        <ele>12746.0</ele>
        <name>Fossil Mountain</name>
        <desc>CO</desc>
    </wpt>
    <wpt lat="37.535833333" lon="-107.584722222">
        <ele>12746.0</ele>
        <name>Sheridan Mountain</name>
        <desc>CO</desc>
    </wpt>
    <wpt lat="39.526666667" lon="-105.8225">
        <ele>12736.0</ele>
        <name>Red Cone</name>
        <desc>CO</desc>
    </wpt>
    <wpt lat="37.773333333" lon="-107.588611111">
        <ele>12736.0</ele>
        <name>Sugarloaf</name>
        <desc>CO</desc>
    </wpt>
    <wpt lat="38.881388889" lon="-106.333888889">
        <ele>12733.0</ele>
        <name>Birthday Peak</name>
        <desc>CO</desc>
    </wpt>
    <wpt lat="40.410277778" lon="-105.902222222">
        <ele>12733.0</ele>
        <name>Mount Cumulus</name>
        <desc>CO</desc>
    </wpt>
    <wpt lat="37.987777778" lon="-107.866111111">
        <ele>12730.0</ele>
        <name>Iron Mountain</name>
        <desc>CO</desc>
    </wpt>
    <wpt lat="40.434444444" lon="-105.901944444">
        <ele>12730.0</ele>
        <name>Mount Cirrus</name>
        <desc>CO</desc>
    </wpt>
    <wpt lat="39.115833333" lon="-106.945">
        <ele>12720.0</ele>
        <name>Sievers Mountain</name>
        <desc>CO</desc>
    </wpt>
    <wpt lat="39.058055556" lon="-107.282222222">
        <ele>12716.0</ele>
        <name>Chair Mountain</name>
        <desc>CO</desc>
    </wpt>
    <wpt lat="39.688888889" lon="-105.945277778">
        <ele>12716.0</ele>
        <name>Coon Hill</name>
        <desc>CO</desc>
    </wpt>
    <wpt lat="37.894166667" lon="-107.823333333">
        <ele>12716.0</ele>
        <name>Gold Hill</name>
        <desc>CO</desc>
    </wpt>
    <wpt lat="38.932777778" lon="-106.718055556">
        <ele>12713.0</ele>
        <name>American Flag Mountain</name>
        <desc>CO</desc>
    </wpt>
    <wpt lat="37.793333333" lon="-107.055">
        <ele>12713.0</ele>
        <name>Bristol Head</name>
        <desc>CO</desc>
    </wpt>
    <wpt lat="38.677777778" lon="-106.5075">
        <ele>12707.0</ele>
        <name>Green Mountain</name>
        <desc>CO</desc>
    </wpt>
    <wpt lat="38.688333333" lon="-107.195">
        <ele>12703.0</ele>
        <name>Middle Baldy</name>
        <desc>CO</desc>
    </wpt>
    <wpt lat="37.832222222" lon="-107.968611111">
        <ele>12700.0</ele>
        <name>Cross Mountain</name>
        <desc>CO</desc>
    </wpt>
    <wpt lat="37.982222222" lon="-107.771388889">
        <ele>12700.0</ele>
        <name>Stony Mountain</name>
        <desc>CO</desc>
    </wpt>
    <wpt lat="37.44" lon="-108.050555556">
        <ele>12697.0</ele>
        <name>Diorite Peak</name>
        <desc>CO</desc>
    </wpt>
    <wpt lat="40.346666667" lon="-105.736388889">
        <ele>12697.0</ele>
        <name>Sprague Mountain</name>
        <desc>CO</desc>
    </wpt>
    <wpt lat="38.251388889" lon="-105.738055556">
        <ele>12697.0</ele>
        <name>Wulsten Baldy</name>
        <desc>CO</desc>
    </wpt>
    <wpt lat="40.376666667" lon="-105.748611111">
        <ele>12693.0</ele>
        <name>Terra Tomah Mountain</name>
        <desc>CO</desc>
    </wpt>
    <wpt lat="40.548333333" lon="-105.676666667">
        <ele>12690.0</ele>
        <name>Comanche Peak</name>
        <desc>CO</desc>
    </wpt>
    <wpt lat="37.450833333" lon="-106.604444444">
        <ele>12690.0</ele>
        <name>North Mountain</name>
        <desc>CO</desc>
    </wpt>
    <wpt lat="38.965833333" lon="-106.825277778">
        <ele>12687.0</ele>
        <name>Carbonate Hill</name>
        <desc>CO</desc>
    </wpt>
    <wpt lat="38.13" lon="-107.539444444">
        <ele>12687.0</ele>
        <name>Dunsinane</name>
        <desc>CO</desc>
    </wpt>
    <wpt lat="39.71" lon="-105.878611111">
        <ele>12687.0</ele>
        <name>Mount Bethel</name>
        <desc>CO</desc>
    </wpt>
    <wpt lat="38.761111111" lon="-106.417222222">
        <ele>12687.0</ele>
        <name>Mount Kreutzer</name>
        <desc>CO</desc>
    </wpt>
    <wpt lat="38.35" lon="-105.898333333">
        <ele>12687.0</ele>
        <name>Twin Sisters</name>
        <desc>CO</desc>
    </wpt>
    <wpt lat="40.185555556" lon="-105.671111111">
        <ele>12677.0</ele>
        <name>Ouzel Peak</name>
        <desc>CO</desc>
    </wpt>
    <wpt lat="40.472222222" lon="-105.693611111">
        <ele>12674.0</ele>
        <name>Desolation Peaks</name>
        <desc>CO</desc>
    </wpt>
    <wpt lat="39.084166667" lon="-106.413888889">
        <ele>12674.0</ele>
        <name>Parry Peak</name>
        <desc>CO</desc>
    </wpt>
    <wpt lat="37.622777778" lon="-107.484444444">
        <ele>12667.0</ele>
        <name>Buffalo Peak</name>
        <desc>CO</desc>
    </wpt>
    <wpt lat="39.094166667" lon="-106.611111111">
        <ele>12667.0</ele>
        <name>Independence Mountain</name>
        <desc>CO</desc>
    </wpt>
    <wpt lat="37.609166667" lon="-107.401111111">
        <ele>12664.0</ele>
        <name>Mesa Lato</name>
        <desc>CO</desc>
    </wpt>
    <wpt lat="38.812222222" lon="-107.3825">
        <ele>12664.0</ele>
        <name>Mount Gunnison</name>
        <desc>CO</desc>
    </wpt>
    <wpt lat="38.126388889" lon="-107.207222222">
        <ele>12661.0</ele>
        <name>Calf Creek Plateau</name>
        <desc>CO</desc>
    </wpt>
    <wpt lat="37.393611111" lon="-104.919722222">
        <ele>12661.0</ele>
        <name>East Spanish Peak</name>
        <desc>CO</desc>
    </wpt>
    <wpt lat="37.585833333" lon="-106.853611111">
        <ele>12661.0</ele>
        <name>Table Mountain</name>
        <desc>CO</desc>
    </wpt>
    <wpt lat="39.453611111" lon="-106.238055556">
        <ele>12657.0</ele>
        <name>Elk Mountain</name>
        <desc>CO</desc>
    </wpt>
    <wpt lat="40.279166667" lon="-105.653055556">
        <ele>12657.0</ele>
        <name>Thatchtop</name>
        <desc>CO</desc>
    </wpt>
    <wpt lat="37.421111111" lon="-108.09">
        <ele>12654.0</ele>
        <name>Burwell Peak</name>
        <desc>CO</desc>
    </wpt>
    <wpt lat="39.478333333" lon="-106.105555556">
        <ele>12654.0</ele>
        <name>Tenmile Range Peak 7</name>
        <desc>CO</desc>
    </wpt>
    <wpt lat="40.268333333" lon="-105.650277778">
        <ele>12651.0</ele>
        <name>Arrowhead</name>
        <desc>CO</desc>
    </wpt>
    <wpt lat="39.808888889" lon="-105.901944444">
        <ele>12651.0</ele>
        <name>Mount Nystrom</name>
        <desc>CO</desc>
    </wpt>
    <wpt lat="37.860833333" lon="-107.698611111">
        <ele>12651.0</ele>
        <name>Ohio Peak</name>
        <desc>CO</desc>
    </wpt>
    <wpt lat="37.685277778" lon="-107.9875">
        <ele>12647.0</ele>
        <name>Blackhawk Mountain</name>
        <desc>CO</desc>
    </wpt>
    <wpt lat="39.709166667" lon="-106.3125">
        <ele>12647.0</ele>
        <name>The Spider</name>
        <desc>CO</desc>
    </wpt>
    <wpt lat="38.985555556" lon="-106.976944444">
        <ele>12644.0</ele>
        <name>Avery Peak</name>
        <desc>CO</desc>
    </wpt>
    <wpt lat="37.6175" lon="-106.928055556">
        <ele>12644.0</ele>
        <name>Beautiful Mountain</name>
        <desc>CO</desc>
    </wpt>
    <wpt lat="40.396388889" lon="-105.904166667">
        <ele>12644.0</ele>
        <name>Mount Nimbus</name>
        <desc>CO</desc>
    </wpt>
    <wpt lat="40.659166667" lon="-105.955833333">
        <ele>12644.0</ele>
        <name>South Rawah Peak</name>
        <desc>CO</desc>
    </wpt>
    <wpt lat="38.897222222" lon="-107.1275">
        <ele>12641.0</ele>
        <name>Ruby Peak</name>
        <desc>CO</desc>
    </wpt>
    <wpt lat="38.624166667" lon="-106.384444444">
        <ele>12634.0</ele>
        <name>Mount Chapman</name>
        <desc>CO</desc>
    </wpt>
    <wpt lat="39.536111111" lon="-105.856666667">
        <ele>12625.0</ele>
        <name>Teller Mountain</name>
        <desc>CO</desc>
    </wpt>
    <wpt lat="39.855833333" lon="-105.962222222">
        <ele>12621.0</ele>
        <name>Bills Peak</name>
        <desc>CO</desc>
    </wpt>
    <wpt lat="37.9425" lon="-107.512777778">
        <ele>12618.0</ele>
        <name>Edith Mountain</name>
        <desc>CO</desc>
    </wpt>
    <wpt lat="37.737222222" lon="-107.801944444">
        <ele>12618.0</ele>
        <name>Jura Knob</name>
        <desc>CO</desc>
    </wpt>
    <wpt lat="38.585" lon="-106.275">
        <ele>12618.0</ele>
        <name>Missouri Hill</name>
        <desc>CO</desc>
    </wpt>
    <wpt lat="38.480555556" lon="-106.258055556">
        <ele>12615.0</ele>
        <name>Pahlone Peak</name>
        <desc>CO</desc>
    </wpt>
    <wpt lat="38.12" lon="-107.535555556">
        <ele>12615.0</ele>
        <name>Precipice Peak</name>
        <desc>CO</desc>
    </wpt>
    <wpt lat="39.528333333" lon="-106.12">
        <ele>12615.0</ele>
        <name>Tenmile Range Peak 3</name>
        <desc>CO</desc>
    </wpt>
    <wpt lat="38.665555556" lon="-106.344166667">
        <ele>12611.0</ele>
        <name>Chrysolite Mountain</name>
        <desc>CO</desc>
    </wpt>
    <wpt lat="39.278888889" lon="-106.237222222">
        <ele>12611.0</ele>
        <name>Prospect Mountain</name>
        <desc>CO</desc>
    </wpt>
    <wpt lat="37.466111111" lon="-106.401944444">
        <ele>12611.0</ele>
        <name>Windy Mountain</name>
        <desc>CO</desc>
    </wpt>
    <wpt lat="38.921111111" lon="-107.118888889">
        <ele>12608.0</ele>
        <name>Afley Peak</name>
        <desc>CO</desc>
    </wpt>
    <wpt lat="37.461666667" lon="-106.557222222">
        <ele>12605.0</ele>
        <name>Grayback Mountain</name>
        <desc>CO</desc>
    </wpt>
    <wpt lat="40.303333333" lon="-105.686111111">
        <ele>12598.0</ele>
        <name>Hallett Peak</name>
        <desc>CO</desc>
    </wpt>
    <wpt lat="40.072777778" lon="-105.678611111">
        <ele>12598.0</ele>
        <name>Mount Achonee</name>
        <desc>CO</desc>
    </wpt>
    <wpt lat="39.036666667" lon="-107.282222222">
        <ele>12595.0</ele>
        <name>Ragged Peak</name>
        <desc>CO</desc>
    </wpt>
    <wpt lat="38.678333333" lon="-107.191944444">
        <ele>12592.0</ele>
        <name>Middle Baldy Mountain</name>
        <desc>CO</desc>
    </wpt>
    <wpt lat="39.036111111" lon="-107.088055556">
        <ele>12588.0</ele>
        <name>Crystal Peak</name>
        <desc>CO</desc>
    </wpt>
    <wpt lat="38.956388889" lon="-107.010555556">
        <ele>12588.0</ele>
        <name>Gothic Mountain</name>
        <desc>CO</desc>
    </wpt>
    <wpt lat="38.820833333" lon="-105.023888889">
        <ele>12588.0</ele>
        <name>Sachett Mountain</name>
        <desc>CO</desc>
    </wpt>
    <wpt lat="37.888055556" lon="-108.255833333">
        <ele>12585.0</ele>
        <name>Lone Cone</name>
        <desc>CO</desc>
    </wpt>
    <wpt lat="39.572222222" lon="-105.903611111">
        <ele>12582.0</ele>
        <name>Bear Mountain</name>
        <desc>CO</desc>
    </wpt>
    <wpt lat="38.567777778" lon="-106.346666667">
        <ele>12582.0</ele>
        <name>Clover Mountain</name>
        <desc>CO</desc>
    </wpt>
    <wpt lat="37.52" lon="-107.015555556">
        <ele>12582.0</ele>
        <name>Red Mountain</name>
        <desc>CO</desc>
    </wpt>
    <wpt lat="39.493888889" lon="-106.111111111">
        <ele>12582.0</ele>
        <name>Tenmile Range Peak 6</name>
        <desc>CO</desc>
    </wpt>
    <wpt lat="40.039166667" lon="-105.617222222">
        <ele>12575.0</ele>
        <name>Mount Albion</name>
        <desc>CO</desc>
    </wpt>
    <wpt lat="40.476666667" lon="-105.891666667">
        <ele>12575.0</ele>
        <name>Static Peak</name>
        <desc>CO</desc>
    </wpt>
    <wpt lat="37.910277778" lon="-107.662222222">
        <ele>12572.0</ele>
        <name>Red Mountain Number 1</name>
        <desc>CO</desc>
    </wpt>
    <wpt lat="39.022777778" lon="-107.076388889">
        <ele>12569.0</ele>
        <name>Galena Mountain</name>
        <desc>CO</desc>
    </wpt>
    <wpt lat="40.199166667" lon="-105.666944444">
        <ele>12569.0</ele>
        <name>Mahana Peak</name>
        <desc>CO</desc>
    </wpt>
    <wpt lat="37.565555556" lon="-106.8775">
        <ele>12569.0</ele>
        <name>Sawtooth Mountain</name>
        <desc>CO</desc>
    </wpt>
    <wpt lat="37.8475" lon="-108.125555556">
        <ele>12565.0</ele>
        <name>Dunn Peak</name>
        <desc>CO</desc>
    </wpt>
    <wpt lat="40.489166667" lon="-105.608055556">
        <ele>12562.0</ele>
        <name>Mount Dunraven</name>
        <desc>CO</desc>
    </wpt>
    <wpt lat="39.581944444" lon="-105.910277778">
        <ele>12559.0</ele>
        <name>Independence Mountain</name>
        <desc>CO</desc>
    </wpt>
    <wpt lat="38.971111111" lon="-106.764444444">
        <ele>12559.0</ele>
        <name>Mount Tilton</name>
        <desc>CO</desc>
    </wpt>
    <wpt lat="37.443611111" lon="-107.066944444">
        <ele>12556.0</ele>
        <name>Pagosa Peak</name>
        <desc>CO</desc>
    </wpt>
    <wpt lat="38.998611111" lon="-106.828055556">
        <ele>12552.0</ele>
        <name>Greg Mace Peak</name>
        <desc>CO</desc>
    </wpt>
    <wpt lat="38.698611111" lon="-106.464444444">
        <ele>12549.0</ele>
        <name>Napoleon Mountain</name>
        <desc>CO</desc>
    </wpt>
    <wpt lat="38.972222222" lon="-107.106111111">
        <ele>12546.0</ele>
        <name>Augusta Mountain</name>
        <desc>CO</desc>
    </wpt>
    <wpt lat="39.508611111" lon="-106.618055556">
        <ele>12546.0</ele>
        <name>New York Mountain</name>
        <desc>CO</desc>
    </wpt>
    <wpt lat="37.340833333" lon="-105.165833333">
        <ele>12546.0</ele>
        <name>Teddys Peak</name>
        <desc>CO</desc>
    </wpt>
    <wpt lat="40.360555556" lon="-105.933333333">
        <ele>12542.0</ele>
        <name>Bowen Mountain</name>
        <desc>CO</desc>
    </wpt>
    <wpt lat="37.497222222" lon="-107.376111111">
        <ele>12542.0</ele>
        <name>Graham Peak</name>
        <desc>CO</desc>
    </wpt>
    <wpt lat="37.915" lon="-107.758333333">
        <ele>12542.0</ele>
        <name>Ingram Peak</name>
        <desc>CO</desc>
    </wpt>
    <wpt lat="39.4625" lon="-106.248055556">
        <ele>12542.0</ele>
        <name>Sugarloaf Peak</name>
        <desc>CO</desc>
    </wpt>
    <wpt lat="40.243611111" lon="-105.71">
        <ele>12539.0</ele>
        <name>Andrews Peak</name>
        <desc>CO</desc>
    </wpt>
    <wpt lat="37.692222222" lon="-107.989444444">
        <ele>12539.0</ele>
        <name>Harts Peak</name>
        <desc>CO</desc>
    </wpt>
    <wpt lat="37.419166667" lon="-106.601388889">
        <ele>12536.0</ele>
        <name>South Mountain</name>
        <desc>CO</desc>
    </wpt>
    <wpt lat="38.106111111" lon="-107.229444444">
        <ele>12533.0</ele>
        <name>Cannibal Plateau</name>
        <desc>CO</desc>
    </wpt>
    <wpt lat="40.255277778" lon="-105.638055556">
        <ele>12533.0</ele>
        <name>The Spearhead</name>
        <desc>CO</desc>
    </wpt>
    <wpt lat="37.408888889" lon="-106.596388889">
        <ele>12529.0</ele>
        <name>Cropsy Mountain</name>
        <desc>CO</desc>
    </wpt>
    <wpt lat="39.785833333" lon="-105.822777778">
        <ele>12529.0</ele>
        <name>Stanley Mountain</name>
        <desc>CO</desc>
    </wpt>
    <wpt lat="38.577777778" lon="-106.403333333">
        <ele>12529.0</ele>
        <name>Stella Mountain</name>
        <desc>CO</desc>
    </wpt>
    <wpt lat="39.557222222" lon="-106.196111111">
        <ele>12529.0</ele>
        <name>Uneva Peak</name>
        <desc>CO</desc>
    </wpt>
    <wpt lat="37.837777778" lon="-107.707222222">
        <ele>12526.0</ele>
        <name>Anvil Mountain</name>
        <desc>CO</desc>
    </wpt>
    <wpt lat="37.525555556" lon="-107.091666667">
        <ele>12523.0</ele>
        <name>Sugarloaf Mountain</name>
        <desc>CO</desc>
    </wpt>
    <wpt lat="37.709722222" lon="-107.928333333">
        <ele>12520.0</ele>
        <name>Hermosa Peak</name>
        <desc>CO</desc>
    </wpt>
    <wpt lat="40.056944444" lon="-105.660833333">
        <ele>12516.0</ele>
        <name>Mount George</name>
        <desc>CO</desc>
    </wpt>
    <wpt lat="38.840555556" lon="-105.104722222">
        <ele>12513.0</ele>
        <name>Sentinel Point</name>
        <desc>CO</desc>
    </wpt>
    <wpt lat="37.288888889" lon="-106.774166667">
        <ele>12503.0</ele>
        <name>Blackhead Peak</name>
        <desc>CO</desc>
    </wpt>